time,vehicle x-position,vehicle y-position,vehicle z-position,velocity (m/s),revolutions per minute,roll (radians),pitch (radians),yaw (radians),water temperature (Celsius),velocity (m/s),rotation of the steering wheel,throttle,brake,clutch,airspeed,airflow speed,altitude,reverse,throttle,
0.0090000005438924,1299.864635251,841.95786343792,1.1000675202231,0.86439731288901,1385.3516406027,0.0025814757682383,-0.003048240672797,-1.7925870418549,80.04327856004,0.86439731288901,25.43273833899,0.19546542393201,0,0.61930705134383,1.18151380793,1.3502646365028,1.1412599439924,0,0.19546542393201,
0.017500001005828,1299.8639882075,841.95801081348,1.0927536912786,0.7690734312382,1406.3286125315,0.0028523514047265,-0.0036409203894436,-1.7926161289215,80.044512959084,0.7690734312382,25.380298680045,0.20077792422072,0,0.6055320606919,1.0990257436096,1.2847248060116,1.1316351696257,0,0.20077792422072,
0.026500001549721,1299.8632394138,841.9581690809,1.086734902754,0.66100109002768,1425.3344958053,0.0030924854800105,-0.0043810377828777,-1.7925510406494,80.045765476938,0.66100109002768,25.38370466352,0.20640292456065,0,0.59339387125576,1.0114208121347,1.2129380140788,1.1227204405788,0,0.20640292456065,
0.040000001899898,1299.8623140222,841.95826682628,1.0816881568899,0.48633743543788,1444.650040524,0.0032598813995719,-0.0054158638231456,-1.7924867868423,80.047210667695,0.48633743543788,25.392673672614,0.21484042477951,0,0.58223373531828,0.90640414033313,1.1317044285208,1.1145614308932,0,0.21484042477951,
0.053000002168119,1299.8607511646,841.95831491827,1.0777414705735,0.18653941014368,1472.8265710088,0.0029765246436,-0.0071796202100813,-1.7922563552856,80.049512818387,0.18653941014368,25.350530218683,0.22296542494715,0,0.56420338193854,0.76243119457546,1.0208120296216,1.1072112260516,0,0.22296542494715,
0.065500002354383,1299.8589911454,841.95848675349,1.0773927706869,0.15802412197906,1498.0668147896,0.0028777385596186,-0.0090848645195365,-1.792264342308,80.051728786611,0.15802412197906,25.30602992328,0.23077792506357,0,0.54849027269093,0.64154978211072,0.88645087677763,1.1012405823274,0,0.23077792506357,
0.078000002540648,1299.8571002923,841.95868069627,1.0796331687598,0.33075976306009,1520.902938079,0.0025405331980437,-0.011068980209529,-1.7921334505081,80.054117128,0.33075976306009,25.164655980287,0.23859042517998,0,0.53480277143457,0.57939177843211,0.74282772937239,1.0968905266606,0,0.23859042517998,
0.090500002726912,1299.8548657597,841.95913349272,1.0849472071568,0.58678627466277,1542.1531910315,0.0023835133761168,-0.012779165990651,-1.7921298742294,80.056735960964,0.58678627466277,25.166965751334,0.2464029252964,0,0.5226030063195,0.580870676774,0.6323070384965,1.0944466492719,0,0.2464029252964,
0.10250000283122,1299.8521397735,841.95963622509,1.0929377687571,0.73353722495233,1562.3480672379,0.0021143541671336,-0.013889999128878,-1.7921240329742,80.059542433191,0.73353722495233,25.101053176476,0.25390292536159,0,0.51127224068567,0.61140399276274,0.58160134616738,1.0940757434516,0,0.25390292536159,
0.11450000293553,1299.8489308034,841.96036945496,1.1015144142148,0.78836230091844,1580.8663300192,0.0021290611475706,-0.014554105699062,-1.7920391559601,80.062405398276,0.78836230091844,25.121777832081,0.26140292542678,0,0.5013714966472,0.64679564713683,0.57130124142365,1.0954906257748,0,0.26140292542678,
0.1260000038892,1299.8451711939,841.96130938937,1.1104875547171,0.8436693589033,1598.332013771,0.0021555554121733,-0.014640076085925,-1.7919644117355,80.065447427085,0.8436693589033,25.140432715278,0.26859042602283,0,0.49237332971927,0.68617038869259,0.5847583569733,1.0984127929019,0,0.26859042602283,
0.13750000484288,1299.8412084546,841.96224614832,1.1197219272435,0.90154056938947,1614.4798077605,0.0020341300405562,-0.014276509173214,-1.791974902153,80.068496155806,0.90154056938947,25.130765880202,0.27577792661888,0,0.48447824651705,0.7292444264364,0.61254444183093,1.1025923339691,0,0.27577792661888,
0.1485000057146,1299.8369213999,841.96329493753,1.1292505443853,0.91017277552263,1630.7431814621,0.0019559680949897,-0.013650930486619,-1.7920866012573,80.071692781751,0.91017277552263,25.131380872948,0.2826529271637,0,0.47634328140485,0.76543009324644,0.64765477944359,1.1078419803116,0,0.2826529271637,
0.15950000658631,1299.8324532647,841.96428081126,1.1379618330393,0.88019607735326,1645.5130525207,0.001804742962122,-0.0129425060004,-1.7920767068863,80.074856045992,0.88019607735326,25.182050718141,0.28952792770852,0,0.46949272984968,0.78838329349974,0.68191820994175,1.1137897347238,0,0.28952792770852,
0.17050000745803,1299.8273974553,841.96537306577,1.1460468231526,0.8699250366867,1658.8578694323,0.0015189483528957,-0.011976121924818,-1.7921073436737,80.078142409222,0.8699250366867,25.309471892024,0.29640292825335,0,0.46408098402686,0.80469165114577,0.7111903239501,1.1201694706938,0,0.29640292825335,
0.18100000824779,1299.8220191295,841.96661387261,1.1538393381052,0.86574696753034,1672.0766000105,0.0012999632162973,-0.010854366235435,-1.7922052145004,80.081516692937,0.86574696753034,25.364532242923,0.30296542874695,0,0.45867605307433,0.81690271590563,0.73540417823891,1.1268333276002,0,0.30296542874695,
0.19200000911951,1299.8166040383,841.96759737247,1.1609210526804,0.84410582813231,1684.8779669141,0.00090205727610737,-0.0096775600686669,-1.7921459674835,80.084817460216,0.84410582813231,25.435079677709,0.30984042929177,0,0.45362788672978,0.82234334067037,0.75415545681079,1.1335864607405,0,0.30984042929177,
0.20300000999123,1299.8103989062,841.96874076308,1.1675336330372,0.8232057353315,1698.4488297378,0.00045469438191503,-0.0083020683377981,-1.7920887470245,80.088379995015,0.8232057353315,25.530526641169,0.31671542983659,0,0.44805373937623,0.82251581442777,0.76669239981143,1.1403188899287,0,0.31671542983659,
0.21350001078099,1299.8039147855,841.97010896514,1.1735451601271,0.80555290327342,1712.3186953172,0.00033113639801741,-0.0067076859995723,-1.7921212911606,80.091985534374,0.80555290327342,25.548340428017,0.3232779303302,0,0.44206172496312,0.81912323150972,0.77364222990011,1.14691149355,0,0.3232779303302,
0.22450001165271,1299.7974965039,841.9714838406,1.178814811341,0.80499314695646,1725.8393087787,0.00017747469246387,-0.0051702260971069,-1.7921636104584,80.09549655774,0.80499314695646,25.560562199911,0.33015293087502,0,0.43635508354108,0.81629721573145,0.77674854029444,1.1532441310964,0,0.33015293087502,
0.23450001236051,1299.790345979,841.97307509528,1.1837858180224,0.80083327901398,1740.4873840557,5.3446448873729e-05,-0.0035915840417147,-1.792173743248,80.099271242983,0.80083327901398,25.614324744519,0.3364029313174,0,0.42948372275494,0.81320442955614,0.77794656935714,1.1593097871846,0,0.3364029313174,
0.24500001315027,1299.7836909154,841.97448784192,1.1878305030841,0.78167390128462,1754.7280203439,-3.0456867534667e-06,-0.0020750388503075,-1.7920380830765,80.102732295179,0.78167390128462,25.681867684706,0.056554616549301,0,0.28612687023701,0.80689832529164,0.77737165119952,1.1649761777167,0,0.056554616549301,
0.25500001385808,1299.7764685283,841.97593172432,1.1914151158853,0.78736349221657,1716.2741554826,-0.00015486421762034,-0.0006509882514365,-1.7919459342957,80.106481914487,0.78736349221657,25.723996073157,0,0,0.28612687023701,0.80299135415345,0.77526977560286,1.170233224316,0,0,
0.26500001456589,1299.7692767908,841.97775531615,1.1943168665312,0.79990990520458,1644.766866069,-4.6684654080309e-05,0.00069143722066656,-1.7921062707901,80.110072308379,0.79990990520458,25.693813327494,0,0,0.28612687023701,0.80237506126236,0.77377717416576,1.1750220572818,0,0,
0.27550001535565,1299.7619406922,841.97937957197,1.1970544692886,0.80570702520468,1606.9124014091,-6.3449522713199e-05,0.0020427750423551,-1.7919881343842,80.113502925925,0.80570702520468,25.718201336315,0,0,0.28612687023701,0.80304145649967,0.77337805208438,1.1794008426562,0,0,
0.28550001606345,1299.7539267545,841.9809930421,1.1997812557966,0.83253930258806,1541.5076220575,-0.00036506980541162,0.0034982315264642,-1.7917594909668,80.116581766224,0.83253930258806,25.806746767135,0.0064267562517684,0,0.48733536299212,0.80894102919815,0.77538768670458,1.1834554523385,0,0.0064267562517684,
0.2950000166893,1299.7458489977,841.982782052,1.2015450151448,0.85618461765415,1475.9079175601,-0.00038539490196854,0.0046768076717854,-1.7916674613953,80.119035974531,0.85618461765415,25.772633226992,0.012589541338936,0,0.55324419622764,0.8183897556362,0.78014007585445,1.1870606780176,0,0.012589541338936,
0.30450001731515,1299.7378461497,841.98461001235,1.2025429730929,0.88158816007574,1424.5017369997,-0.00022572802845389,0.005875769071281,-1.791675567627,80.120984370872,0.88158816007574,25.7245463622,0.018811099200486,0,0.60243050449674,0.83102943670729,0.78718120159466,1.1901495885948,0,0.018811099200486,
0.314000017941,1299.7296258961,841.98646792547,1.2032076533178,0.8938455786963,1381.1153211316,-0.00023810588754714,0.0068624475970864,-1.7915264368057,80.12261941868,0.8938455786963,25.700861962441,0.025081338267422,0,0.64222152626557,0.84359266099913,0.7967051887652,1.1927542553027,0,0.025081338267422,
0.32350001856685,1299.7214245313,841.98822393526,1.2038779398899,0.87387369004923,1345.5134125441,-0.00033893622457981,0.0078050270676613,-1.7914630174637,80.123981377124,0.87387369004923,25.712699037938,0.031398349039941,0,0.67392522719126,0.84964887092577,0.80736391736195,1.1949714792315,0,0.031398349039941,
0.3330000191927,1299.7133453624,841.98990506692,1.2044674021672,0.87751679498105,1316.626371765,-0.00032390793785453,0.0085811698809266,-1.7913403511047,80.125106580489,0.87751679498105,25.656942332772,0.037754068799571,0,0.69921796830096,0.85522244604482,0.81703472529352,1.1968660412267,0,0.037754068799571,
0.34250001981854,1299.7050096579,841.99168492157,1.2045954003197,0.91197169286543,1293.0802008957,-0.0003776530502364,0.0092723341658711,-1.7912971973419,80.126026849576,0.91197169286543,25.673505528699,0.044144408869421,0,0.71970081059397,0.86657229448997,0.82713724688292,1.1984129951823,0,0.044144408869421,
0.35250002052635,1299.696606362,841.99364632081,1.2043827910948,0.89842037126953,1274.1446248711,-0.0002278663450852,0.0098832119256258,-1.7913403511047,80.126770093718,0.89842037126953,25.634913774827,0.050903415654134,0,0.73640330787576,0.87294191428536,0.83760963690758,1.199609073514,0,0.050903415654134,
0.36150002107024,1299.6878899987,841.99544026407,1.2041875629902,0.88770167915081,1259.4305924823,-0.00027007213793695,0.010375151410699,-1.7911032438278,80.127391934114,0.88770167915081,25.634980424017,0.057010031815685,0,0.74969602120459,0.87589386946769,0.84660694847489,1.2005264779045,0,0.057010031815685,
0.37100002169609,1299.6799936141,841.99702954868,1.2038681147696,0.90324715288161,1250.198504779,-0.00038024876266718,0.010632346384227,-1.7909957170486,80.127817991522,0.90324715288161,25.699276873839,0.063468907447021,0,0.75905298390292,0.88136451917339,0.85456876238175,1.2011991278421,0,0.063468907447021,
0.38000002223998,1299.6715172348,841.99882757228,1.2033441861386,0.91940932077262,1243.9456237192,-0.00026487628929317,0.010809978470206,-1.7909142971039,80.128170525305,0.91940932077262,25.580025101785,0.06959636096535,0,0.76634461777356,0.88897348227063,0.86264662567764,1.2016346085939,0,0.06959636096535,
0.38950002286583,1299.6634810574,842.00045431795,1.2026860002552,0.90726750662401,1241.2090785369,-0.00024061417207122,0.011138887144625,-1.7908067703247,80.128411003067,0.90726750662401,25.556010856727,0.07608090324487,0,0.77136448451396,0.8926322879947,0.87030497887921,1.2018527212837,0,0.07608090324487,
0.39900002349168,1299.655105571,842.00223558429,1.2019247557255,0.90464274592933,1241.7633569417,-0.00013560871593654,0.011221989989281,-1.7907854318619,80.128595051792,0.90464274592933,25.538203456784,0.082569663676115,0,0.77441864810779,0.89503438254648,0.87657913525257,1.2018757917959,0,0.082569663676115,
0.40800002403557,1299.6466960631,842.00394991742,1.2010341020905,0.91306547839606,1245.3109137053,-0.00024133850820363,0.011097148060799,-1.7906928062439,80.128709404369,0.91306547839606,25.493494192203,0.088710907862557,0,0.77556294588555,0.89864060465856,0.88189523187759,1.201717174727,0,0.088710907862557,
0.41700002457947,1299.6385950869,842.00548010795,1.2001483467757,0.92582438338393,1251.1006044207,-0.00044717430137098,0.011058042757213,-1.7905220985413,80.128768933373,0.92582438338393,25.500181432182,0.094850272737731,0,0.77528526327071,0.90407736447941,0.88733678076651,1.2014132075932,0,0.094850272737731,
0.42600002512336,1299.6304406995,842.00698768608,1.1991294600302,0.93155919647526,1259.1099045677,-0.00050603959243745,0.011070965789258,-1.7903611660004,80.128798106967,0.93155919647526,25.459891727835,0.10099025861648,0,0.77369583835814,0.90957373259457,0.89280347040483,1.200969047024,0,0.10099025861648,
0.43500002566725,1299.6222746647,842.00857476252,1.1979611061106,0.93398083704003,1269.2159829991,-0.00063377758488059,0.01096829585731,-1.7902979850769,80.128801414061,0.93398083704003,25.385944111608,0.10712531209219,0,0.77086563234651,0.91445515058829,0.89821072428377,1.2003805928819,0,0.10712531209219,
0.44400002621114,1299.614153979,842.01023285375,1.1967302826451,0.9289619424185,1281.2315544974,-0.00067661516368389,0.010723477229476,-1.7902187108994,80.128788242347,0.9289619424185,25.30897420423,0.11324861614019,0,0.7668942497069,0.91735650700246,0.90304062770964,1.1996640915388,0,0.11324861614019,
0.45250002667308,1299.6060009555,842.0118164801,1.1955145743705,0.93857055007192,1294.8726210789,-0.00056399824097753,0.010472239926457,-1.7900584936142,80.128765502181,0.93857055007192,25.258735065835,0.11902036555818,0,0.76184309152824,0.921599305486,0.90743864383031,1.1988478227229,0,0.11902036555818,
0.46150002721697,1299.5982159644,842.01333763505,1.1943170276063,0.94543935693558,1308.9873098305,-0.00059180147945881,0.010246988385916,-1.7899243831635,80.128741267104,0.94543935693558,25.217676033657,0.12512085017007,0,0.75648455960035,0.92636731212562,0.91200878068391,1.1979557215191,0,0.12512085017007,
0.47050002776086,1299.5899961973,842.01501488805,1.1931593481859,0.93903214697577,1325.2479231842,-0.00044867326505482,0.0099179847165942,-1.7898046970367,80.128725460347,0.93903214697577,25.160225419962,0.13120561579508,0,0.74987413586746,0.92890027717929,0.91624485528138,1.1970088910275,0,0.13120561579508,
0.4790000282228,1299.5817838379,842.0166878175,1.1919859580667,0.94435095873785,1342.7521609455,-0.00036003056447953,0.009540761820972,-1.7896821498871,80.128711584326,0.94435095873785,25.072370950719,0.13693535265847,0,0.74235029987717,0.93199041331753,0.9199608729336,1.1960178956361,0,0.13693535265847,
0.48850002884865,1299.5739663875,842.01831531148,1.1907840252607,0.95441173486136,1360.0947289752,-0.00029122526757419,0.0091601731255651,-1.7895985841751,80.12871363085,0.95441173486136,25.0121272168,0.14332006500897,0,0.73495482763243,0.9364746796683,0.92368487247255,1.1949855363346,0,0.14332006500897,
0.4980000294745,1299.5651283685,842.02016386878,1.1894132939342,0.96268847587489,1380.2620767559,-2.1695625036955e-05,0.0086547574028373,-1.7894963026047,80.128747056483,0.96268847587489,24.959717141565,0.14967946404903,0,0.72590099114295,0.94171744486456,0.92787436825773,1.1938848237973,0,0.14967946404903,
0.50750003010035,1299.5562696006,842.02200366755,1.1881411855502,0.96059904978603,1401.1484167123,0.00014088640455157,0.0082306144759059,-1.7893812656403,80.128796427979,0.96059904978603,24.919808117447,0.1560176784074,0,0.71629002357825,0.94549376885704,0.93223752723329,1.1927490743622,0,0.1560176784074,
0.51650003064424,1299.5474101325,842.02388692283,1.1869385274695,0.96538833865955,1422.593732986,0.00037452217657119,0.0076560857705772,-1.7892431020737,80.128890086729,0.96538833865955,24.888433868418,0.16199519682815,0,0.70611013328642,0.94947267469256,0.93636159218306,1.1915991713703,0,0.16199519682815,
0.52550003118813,1299.5389155345,842.02570706194,1.1857854118934,0.97966297918548,1443.1839512191,0.00057147548068315,0.0071075358428061,-1.7891411781311,80.129026437468,0.97966297918548,24.828315940801,0.16794692096365,0,0.69627136452803,0.95551074263644,0.94081532650752,1.190449484992,0,0.16794692096365,
0.53500003181398,1299.5303268785,842.02751631702,1.1845526475445,0.99030377910425,1463.9800177552,0.00065707426983863,0.0066822608932853,-1.7890199422836,80.129226728234,0.99030377910425,24.787643958197,0.17420824864727,0,0.68629117443947,0.96246935699138,0.94585298056256,1.1892840455437,0,0.17420824864727,
0.54450003243983,1299.5211393058,842.02945915683,1.1832136776793,1.0065843606649,1486.1097447734,0.00080967089161277,0.0062561454251409,-1.7889257669449,80.129503527977,1.0065843606649,24.737813809161,0.18044853999346,0,0.67541898908809,0.97129236677291,0.95175265117368,1.1880846890183,0,0.18044853999346,
0.55450003314763,1299.5118514762,842.03133556608,1.1818319854719,1.0113545439497,1508.2991282488,0.00080367713235319,0.0058534848503768,-1.7887955904007,80.129847495314,1.0113545439497,24.687199232507,0.18699639442149,0,0.66449142133378,0.97930480654242,0.95845459972923,1.186848328302,0,0.18699639442149,
0.56350003369153,1299.501984481,842.03331496349,1.1804761192398,1.0199261163812,1531.6334712156,0.00086582428775728,0.0054460745304823,-1.7887325286865,80.130300013583,1.0199261163812,24.634496174016,0.19287050134801,0,0.65257103479523,0.98742905946733,0.96567187766317,1.1855873710233,0,0.19287050134801,
0.57300003431737,1299.493030281,842.03523026557,1.1792168938409,1.0338116528485,1552.3586953991,0.00098309037275612,0.0050716307014227,-1.7886958122253,80.13078463031,1.0338116528485,24.598862767419,0.19905259436679,0,0.64221839210801,0.9967055852585,0.9733301008549,1.184327788855,0,0.19905259436679,
0.58250003494322,1299.4834462171,842.03722007017,1.1779193627808,1.0455648241504,1574.0726387736,0.0011033932678401,0.0046097044833004,-1.7885990142822,80.131417139431,1.0455648241504,24.587171254236,0.20521210242556,0,0.63119728669074,1.0064774223465,0.98154885012362,1.1830591024601,0,0.20521210242556,
0.59150003548712,1299.4737174293,842.03916002699,1.1767446347912,1.0579240266943,1595.5973410907,0.0011262304615229,0.0041790376417339,-1.7884483337402,80.132132396849,1.0579240266943,24.584636257867,0.21102753032349,0,0.62010926039891,1.0167667443195,0.99036901345613,1.1818079520578,0,0.21102753032349,
0.60100003611296,1299.4643826769,842.0411008391,1.1757662901291,1.0724893965654,1615.6095942111,0.0012641220819205,0.0038506875280291,-1.7884002923965,80.132908755688,1.0724893965654,24.549961897445,0.21715006221448,0,0.61000190575863,1.0279112716229,0.99973584930708,1.1806097403617,0,0.21715006221448,
0.61050003673881,1299.4543820874,842.0431608365,1.1748257022409,1.0845182340276,1636.4337922722,0.0014140594284981,0.0035508316941559,-1.7883636951447,80.133847887679,1.0845182340276,24.459874519109,0.22325803234162,0,0.5993629756803,1.039232656138,1.0098606723198,1.1794628680111,0,0.22325803234162,
0.61950003728271,1299.4442430725,842.04521603619,1.1738665146004,1.1010397040885,1656.8158567868,0.0015151805710047,0.0031652455218136,-1.7883012294769,80.134872946699,1.1010397040885,24.45594380132,0.22902682699109,0,0.58886845568923,1.0515940545216,1.0206128658969,1.1783532762815,0,0.22902682699109,
0.62950003799051,1299.4344930346,842.04724761484,1.1730738714759,1.1196541241844,1675.7683371524,0.001557913608849,0.0028899607714266,-1.7882534265518,80.135947831505,1.1196541241844,24.455052639305,0.23542258309764,0,0.57944898501568,1.0652060793412,1.0319422723547,1.1773057193986,0,0.23542258309764,
0.63900003861636,1299.4234505249,842.04947224527,1.1722263746706,1.1396161986829,1696.583228405,0.001563714700751,0.0026017096824944,-1.7880742549896,80.137275299956,1.1396161986829,24.442983207665,0.24148463262459,0,0.56875620336099,1.0800881136713,1.0444797469533,1.1762983013337,0,0.24148463262459,
0.64800003916025,1299.4127094731,842.05157814908,1.1713748846887,1.1701273474699,1715.750244327,0.0014126966707408,0.0024946350604296,-1.7879723310471,80.138610203492,1.1701273474699,24.456040104172,0.24722273447955,0,0.55900011136726,1.0980959693001,1.0583452616816,1.1753229466395,0,0.24722273447955,
0.6575000397861,1299.4023689874,842.05373222604,1.1705180745557,1.1843057282157,1733.464504275,0.0013555374462157,0.0024222780484706,-1.7878786325455,80.140003548374,1.1843057282157,24.37577378249,0.25327613189821,0,0.55027188702502,1.1153379090155,1.0732559708504,1.1743715975536,0,0.25327613189821,
0.66700004041195,1299.3912853218,842.05596638891,1.1696873515575,1.2030118458518,1751.7518699443,0.0014594786334783,0.0024429764598608,-1.7878056764603,80.141598410903,1.2030118458518,24.319377046022,0.25933052691158,0,0.54122674701761,1.1328727012892,1.0889365790485,1.1734427669726,0,0.25933052691158,
0.67600004095584,1299.3800081323,842.05830070794,1.1689376170107,1.2259982912223,1769.6538334995,0.0014576916582882,0.0025226713623852,-1.787752866745,80.143281703754,1.2259982912223,24.305378001837,0.26506990948565,0,0.53234103665813,1.1514978175179,1.1055210922717,1.1725495703286,0,0.26506990948565,
0.68550004158169,1299.3691337893,842.06055812363,1.1683019197153,1.2449982902184,1786.1778073064,0.0015139530878514,0.0024414614308625,-1.7875756025314,80.14497922166,1.2449982902184,24.262473106292,0.27112423147548,0,0.52445719684458,1.1701978973401,1.1226215676116,1.1717059808783,0,0.27112423147548,
0.69500004220754,1299.3574474867,842.06291932092,1.1677844168789,1.2690187308979,1803.2951451182,0.0015333880437538,0.0024946604389697,-1.7874104976654,80.146900145737,1.2690187308979,24.247877227757,0.27718111802342,0,0.51625421980595,1.1899620478831,1.1404344809569,1.1709268011898,0,0.27718111802342,
0.70450004283339,1299.3455404227,842.06544682969,1.1673730848051,1.2923814745787,1819.9756230146,0.0017027205321938,0.0026399339549243,-1.7873497009277,80.148909037166,1.2923814745787,24.16350203162,0.28324501190438,0,0.50838279796297,1.2104459433144,1.159162264865,1.1702195340991,0,0.28324501190438,
0.71400004345924,1299.3334027883,842.06795565705,1.167051682125,1.3169340377198,1836.1472922674,0.0018569161184132,0.0027825178112835,-1.7872433662415,80.151027881544,1.3169340377198,24.10063819632,0.28931578929205,0,0.50090586301117,1.2317435525565,1.1786051605554,1.1695892758846,0,0.28931578929205,
0.72350004408509,1299.3210173079,842.07049996409,1.1667801312151,1.3434117251982,1852.079170513,0.0018154066056013,0.0028805530164391,-1.7870697975159,80.153258674016,1.3434117251982,24.073080435427,0.29539130291439,0,0.49361390058157,1.2540771788524,1.198925440662,1.1690297562027,0,0.29539130291439,
0.73250004462898,1299.3083890027,842.07311036329,1.1665863699591,1.3743457376615,1867.6729296851,0.0017165949102491,0.0030484925955534,-1.7869147062302,80.155596552778,1.3743457376615,24.036865762856,0.30115474513322,0,0.48647438671098,1.2781308989657,1.2201075118008,1.1685434212799,0,0.30115474513322,
0.74150004517287,1299.2961297494,842.07560509733,1.1663103639057,1.4036769225284,1881.9980418562,0.0015264225658029,0.0033352782484144,-1.7867567539215,80.157914195021,1.4036769225284,23.960975381047,0.30693134144391,0,0.48018124617083,1.3032401165115,1.2422404178956,1.1681004945847,0,0.30693134144391,
0.75050004571676,1299.2836151414,842.07813603138,1.1659394567978,1.4327765926853,1895.8430453944,0.001540626748465,0.0036984393373132,-1.7865513563156,80.160350584954,1.4327765926853,23.922006568517,0.31272462727827,0,0.47428079539816,1.3291474072732,1.2652782113535,1.1676726010968,0,0.31272462727827,
0.75950004626065,1299.2708875026,842.08075365231,1.1655884295515,1.4537963901547,1909.3726562259,0.0016016170848161,0.0041471980512142,-1.7864832878113,80.162878414249,1.4537963901547,23.849327937387,0.31853858630669,0,0.46864486840007,1.3540772031623,1.2889203716264,1.1672588084165,0,0.31853858630669,
0.76850004680455,1299.2579948344,842.0834704693,1.1653838477746,1.4747204068709,1922.7762821778,0.0015783881535754,0.0045723668299615,-1.7863558530807,80.165493890999,1.4747204068709,23.762630072751,0.32437218279523,0,0.46312188840795,1.3782058342996,1.3127267351903,1.1668853357652,0,0.32437218279523,
0.77750004734844,1299.2448809267,842.08616770935,1.1653142670633,1.5034086484896,1935.7843953125,0.0015671183355153,0.0048493416979909,-1.7861843109131,80.168193422583,1.5034086484896,23.70568470288,0.33021859877701,0,0.45792884330083,1.4032464015247,1.3365823023444,1.1665714180644,0,0.33021859877701,
0.78600004781038,1299.2314765851,842.08891363394,1.1653072792551,1.5357032214239,1948.3800411564,0.0015982714248821,0.0052658240310848,-1.7860659360886,80.1709736504,1.5357032214239,23.685062574012,0.33575845692249,0,0.45296475886745,1.4297377576639,1.36108176652,1.1663185434481,0,0.33575845692249,
0.79500004835427,1299.218586332,842.09153639231,1.1652967303905,1.557734972511,1959.9766635993,0.001634600572288,0.0056462720967829,-1.7859342098236,80.173672639605,1.557734972511,23.616774201848,0.34164187586729,0,0.44876443869567,1.4553371755449,1.3857943911823,1.1661140264623,0,0.34164187586729,
0.80400004889816,1299.2047377533,842.09438190459,1.1653619690076,1.5836901791491,1972.2917425958,0.0015980530297384,0.006064657587558,-1.7858147621155,80.176629081681,1.5836901791491,23.528718990408,0.34754479139742,0,0.44417602873021,1.4810077975724,1.4107649961688,1.1659632874769,0,0.34754479139742,
0.81300004944205,1299.1906064736,842.09728401767,1.1653837708723,1.6209956653361,1984.4016605777,0.0013406840153039,0.0063299462199211,-1.7856720685959,80.17962573513,1.6209956653361,23.477106287507,0.35346009434221,0,0.43976743206748,1.509005342367,1.4362928183538,1.1658466778788,0,0.35346009434221,
0.82200004998595,1299.1761451953,842.10018929324,1.1654215884123,1.6558109115866,1996.1739059071,0.0012153101852164,0.006821112241596,-1.7854611873627,80.182691691953,1.6558109115866,23.480979671802,0.35939838329559,0,0.43565117263495,1.5383664643309,1.462850110663,1.1657623785808,0,0.35939838329559,
0.83150005061179,1299.1614196987,842.10317068071,1.1652987896032,1.6795002254192,2007.7222754941,0.0011527119204402,0.0073969233781099,-1.785313129425,80.185824362748,1.6795002254192,23.36411740521,0.3656951115646,0,0.4318582276828,1.566593215906,1.49015537654,1.1656708111822,0,0.3656951115646,
0.84050005115569,1299.1456966998,842.10646425275,1.165200500142,1.7025120357343,2019.973023137,0.0011890257010236,0.007997764274478,-1.7851746082306,80.189198848122,1.7025120357343,23.324656743213,0.37168873894165,0,0.42757548758944,1.5937769778914,1.5177243531119,1.1655775539446,0,0.37168873894165,
0.84950005169958,1299.1305492282,842.10958241305,1.1651574887524,1.7313851650582,2031.3407631944,0.001247693435289,0.0084418980404735,-1.7850205898285,80.192430771554,1.7313851650582,23.219227263216,0.37770335432689,0,0.42384582838729,1.6212986046749,1.5451941871938,1.165493292202,0,0.37770335432689,
0.85850005224347,1299.1151236194,842.11271575863,1.1653172510632,1.7639930698679,2042.4172428928,0.001247466658242,0.0089387139305472,-1.7849200963974,80.195755709512,1.7639930698679,23.16796584256,0.38374151253271,0,0.42037226322582,1.649837512547,1.5729120798347,1.1654556851303,0,0.38374151253271,
0.86800005286932,1299.0994427289,842.1159430206,1.1655500868364,1.792568499771,2053.2737788067,0.0012374380603433,0.0093599855899811,-1.7847892045975,80.199137627628,1.792568499771,23.10616768929,0.39013625313242,0,0.4172190067265,1.6783837229206,1.6009325844,1.1654711851053,0,0.39013625313242,
0.87750005349517,1299.0825715415,842.11937919227,1.1657852789403,1.8303738727907,2064.7959291263,0.0010644833091646,0.0097565008327365,-1.7846500873566,80.20276544091,1.8303738727907,23.078009601521,0.39655092913759,0,0.41372689720643,1.7087817549859,1.6296787629088,1.1655323416847,0,0.39655092913759,
0.88700005412102,1299.0653392656,842.12287525344,1.1659046207599,1.8703641941882,2076.2880225242,0.00092823151499033,0.01013951562345,-1.784415602684,80.206418908644,1.8703641941882,23.032126602126,0.40298490601479,0,0.41027723254829,1.7410982418183,1.6593842084853,1.1656062293734,0,0.40298490601479,
0.89650005474687,1299.0477537755,842.12644822904,1.1658898611654,1.9023107546597,2087.5803748954,0.00086401612497866,0.01064979005605,-1.7842022180557,80.210132750842,1.9023107546597,22.975673498351,0.40944466425595,0,0.40701085437207,1.77334073926,1.6900864979146,1.165663241441,0,0.40944466425595,
0.90600005537271,1299.0299414828,842.13016599634,1.1659039969566,1.9267818585228,2098.7915407736,0.00084901973605156,0.011146346107125,-1.784028172493,80.213904573566,1.9267818585228,22.866251169093,0.41592958505502,0,0.40383067562501,1.8040289461215,1.7210784546946,1.1657107822855,0,0.41592958505502,
0.91550005599856,1299.0118544415,842.13387876279,1.1660743007651,1.9598540856292,2109.7828016351,0.00097028119489551,0.011602215468884,-1.7838968038559,80.21773209533,1.9598540856292,22.84569017353,0.4224376713052,0,0.40084897551841,1.8351939820925,1.7521172755889,1.1657808822599,0,0.4224376713052,
0.92500005662441,1298.9934456102,842.13758384646,1.1663395118312,1.9927035042045,2120.662310285,0.00099655543453991,0.011981870979071,-1.7837158441544,80.221613145793,1.9927035042045,22.714636219775,0.42896509744457,0,0.39797591026783,1.866695873235,1.7833806748336,1.1658897719548,0,0.42896509744457,
0.93450005725026,1298.9747156632,842.14139207912,1.1666702418861,2.0310056983787,2131.479715888,0.00083850789815187,0.012263892218471,-1.7835928201675,80.225545651995,2.0310056983787,22.734764227336,0.43550691779997,0,0.39516902879886,1.8995578227793,1.8150108238177,1.1660416620386,0,0.43550691779997,
0.94450005795807,1298.9556105728,842.14529488358,1.1670300771657,2.0727926154276,2142.2210317332,0.00074632279574871,0.01258691214025,-1.7834089994431,80.22952760944,2.0727926154276,22.598173688268,0.44241042978901,0,0.39256673251647,1.9342048119191,1.8473966662181,1.1662362494002,0,0.44241042978901,
0.95400005858392,1298.935069666,842.14939821868,1.167200173888,2.1116677081838,2153.5198124035,0.00062228227034211,0.012844426557422,-1.7831163406372,80.23376919157,2.1116677081838,22.632854926521,0.44898195524072,0,0.38959018186876,1.9696973761466,1.8810743764316,1.1664281350716,0,0.44898195524072,
0.96350005920976,1298.915290558,842.15347196261,1.1672512351147,2.1388631868452,2164.1784652247,0.0005123084411025,0.013129360973835,-1.7829295396805,80.237810503903,2.1388631868452,22.463843527693,0.45556809732657,0,0.38695951177944,2.0035305182574,1.9148325979928,1.1665916571891,0,0.45556809732657,
0.97350005991757,1298.8952264924,842.15761012206,1.1674939801906,2.1732687035368,2174.6550295799,0.00075245974585414,0.013491367921233,-1.7827756404877,80.241936271182,2.1732687035368,22.423491712679,0.46252046321069,0,0.38462030435533,2.0374781259249,1.9485666322883,1.1667687996129,0,0.46252046321069,
0.98350006062537,1298.8737276728,842.16182970174,1.1678121428249,2.2109784396431,2185.5843242619,0.00063958461396396,0.01372401136905,-1.7825912237167,80.246323260444,2.2109784396431,22.355610950338,0.46948543707221,0,0.38211916823946,2.072178202339,1.9827691688677,1.1669738613685,0,0.46948543707221,
0.99300006125122,1298.8518618852,842.16631421076,1.1682706275769,2.2523764973204,2196.3919378779,0.00047416309826076,0.013907371088862,-1.7824720144272,80.250715582026,2.2523764973204,22.209577204859,0.47611161390247,0,0.37960351132781,2.1082178731505,2.0176260292165,1.1672282952563,0,0.47611161390247,
1.003500062041,1298.8306820364,842.17056775402,1.168666531752,2.2922179975774,2206.6747656467,0.00047616474330425,0.01411381457001,-1.7822140455246,80.254933226917,2.2922179975774,22.1565827218,0.48344705825645,0,0.37758944059954,2.1450178924993,2.0530079221433,1.1675129523672,0,0.48344705825645,
1.0135000627488,1298.8068540924,842.17536046426,1.1688028047456,2.3344336614194,2218.1146883523,0.00032106693834066,0.014257974922657,-1.7819744348526,80.259681947979,2.3344336614194,22.103058184495,0.49044103480794,0,0.37490812009977,2.1829010728038,2.0895089320903,1.1677702896434,0,0.49044103480794,
1.0235000634566,1298.7838194721,842.18012929012,1.168971415138,2.3661371264551,2228.7999343579,0.00047818943858147,0.014443850144744,-1.7817312479019,80.264164353892,2.3661371264551,21.985884922539,0.4974451285535,0,0.37265919304703,2.2195482637911,2.1262646049313,1.1680077260842,0,0.4974451285535,
1.0335000641644,1298.760407189,842.18473347544,1.1693152437801,2.4056320172343,2239.4037433797,0.00044409721158445,0.014645020477474,-1.7815598249435,80.268733797743,2.4056320172343,22.002140769134,0.50446018437056,0,0.37048957026717,2.2567650148415,2.1632238173526,1.1682649569599,0,0.50446018437056,
1.0430000647902,1298.7366177086,842.18959418329,1.1698401686299,2.4512711749695,2249.8943583168,0.00039889290928841,0.014806633815169,-1.7814625501633,80.273342614827,2.4512711749695,21.891749926165,0.51113286243931,0,0.36829652189114,2.2956662709827,2.2006801242861,1.1685752643655,0,0.51113286243931,
1.0525000654161,1298.7135881589,842.19416208519,1.1701894924645,2.4916208650037,2259.8564196114,0.00024816137738526,0.014885450713336,-1.781142950058,80.27775673296,2.4916208650037,21.853477871978,0.51780962779477,0,0.36634731121803,2.3348571725936,2.2383594413784,1.1688958226451,0,0.51780962779477,
1.0620000660419,1298.6901970828,842.19891908061,1.1703148079127,2.5281558752645,2269.7971606901,0.00026119430549443,0.014981943182647,-1.7809584140778,80.282243050795,2.5281558752645,21.84265091439,0.52449139961296,0,0.36442522922529,2.373516898811,2.2762244145224,1.1691781138427,0,0.52449139961296,
1.0720000667498,1298.6664931484,842.20373277942,1.170463363319,2.5628081690504,2279.6735558361,0.00042706844396889,0.015050821937621,-1.7806702852249,80.286756232909,2.5628081690504,21.730988504533,0.53152860730978,0,0.36269102036184,2.4113751264096,2.3138884862383,1.169433105393,0,0.53152860730978,
1.0820000674576,1298.6411351472,842.20877584309,1.1708044114293,2.6050497959775,2290.035239189,0.00031184079125524,0.01524698920548,-1.7805119752884,80.291534317642,2.6050497959775,21.692151470921,0.53857654217073,0,0.36077181731905,2.450110070839,2.3520370451704,1.1697027352681,0,0.53857654217073,
1.0915000680834,1298.6153867334,842.21399667067,1.1713386982974,2.6484128589324,2300.2867946213,0.0003898236900568,0.015360306948423,-1.7803465127945,80.296297454894,2.6484128589324,21.591449441153,0.54527797237059,0,0.35882465146541,2.4897706452485,2.390869452802,1.1700253222171,0,0.54527797237059,
1.1010000687093,1298.5905104862,842.21893220162,1.171657112985,2.6914733305177,2309.9858026408,0.00023979321122169,0.015460263006389,-1.780087351799,80.30085247126,2.6914733305177,21.570818235254,0.55198460315295,0,0.35713695014653,2.5301112130066,2.4298135870676,1.1703503873971,0,0.55198460315295,
1.1110000694171,1298.5652709361,842.22403981831,1.1717097520645,2.7253743372664,2319.6922439458,0.00027132104150951,0.01547771692276,-1.7797713279724,80.305475976792,2.7253743372664,21.529665330477,0.55904517076341,0,0.35557754020058,2.5691638147657,2.4687200732216,1.1706226465724,0,0.55904517076341,
1.1210000701249,1298.5383199415,842.2294232758,1.171795633064,2.7692406327551,2329.9225678894,0.00040657096542418,0.015607753768563,-1.7795579433441,80.310365577735,2.7692406327551,21.463208954157,0.56611286559888,0,0.3538027566017,2.6091791753629,2.5079266029346,1.1708548543947,0,0.56611286559888,
1.1305000707507,1298.510976065,842.23492093221,1.1721723990158,2.8090448883164,2340.07608696,0.00038975174538791,0.015812681987882,-1.7793854475021,80.315234313737,2.8090448883164,21.343390375164,0.572837856431,0,0.35197459341107,2.6491523078807,2.5476123013296,1.1711136005797,0,0.572837856431,
1.1400000713766,1298.4845880312,842.24014222709,1.1725489643632,2.851769990389,2349.570413201,0.00027425610460341,0.015839032828808,-1.7791383266449,80.319885520649,2.851769990389,21.298758732847,0.57956422158174,0,0.35048602106047,2.6896758311373,2.5874455386955,1.1713966768962,0,0.57956422158174,
1.1495000720024,1298.457830625,842.2454858202,1.1727375052493,2.8862905454232,2359.0682712907,0.00021820864640176,0.015893369913101,-1.7788418531418,80.324602617289,2.8862905454232,21.253653134526,0.58629342132856,0,0.34900229187955,2.7289987749562,2.6272446008173,1.1716648612008,0,0.58629342132856,
1.1590000726283,1298.4307284779,842.25088462382,1.1726904317446,2.9310080866735,2368.6403090507,0.00027475785464048,0.016012227162719,-1.7785906791687,80.329337609914,2.9310080866735,21.192376204942,0.5930288246102,0,0.34746875382417,2.7694006400669,2.6666821552632,1.1718696096409,0,0.5930288246102,
1.1680000731722,1298.4032333524,842.25641202487,1.1727701210721,2.9699672060248,2378.2144235823,0.00045634945854545,0.016172619536519,-1.7784003019333,80.33408988432,2.9699672060248,21.093014949339,0.59941767017272,0,0.34581729102864,2.8095139374228,2.7062422047708,1.172048166503,0,0.59941767017272,
1.177000073716,1298.3768340831,842.26162518296,1.1730220221525,3.00980891055,2387.0416367301,0.00032173143699765,0.016292247921228,-1.7781715393066,80.338607874224,3.00980891055,21.017784639677,0.60581244052075,0,0.34457197356892,2.8495729056908,2.7455942639235,1.1722388864434,0,0.60581244052075,
1.1860000742599,1298.3500868795,842.26691579947,1.1733018060918,3.0450751334557,2395.8146162153,0.00023516383953393,0.016355456784368,-1.7778912782669,80.343181618869,3.0450751334557,20.969458105995,0.61221034305138,0,0.3433757547497,2.8886733124982,2.7848663336852,1.1724503517847,0,0.61221034305138,
1.1955000748858,1298.323032924,842.27226601233,1.1733410316224,3.0842378596437,2404.7173076032,0.00017225183546543,0.016466731205583,-1.7776355743408,80.347765281921,3.0842378596437,20.906810241624,0.61896950790135,0,0.34221049291034,2.9277862127885,2.823641682213,1.1726287031731,0,0.61896950790135,
1.2045000754297,1298.2940924263,842.27803921205,1.1732868685076,3.1284975227363,2414.2290526533,0.00035010674037039,0.016629729419947,-1.7773896455765,80.352613909202,3.1284975227363,20.824836234321,0.6253810147674,0,0.34064130378917,2.9679284903419,2.8626044945284,1.1727620859592,0,0.6253810147674,
1.2135000759736,1298.2662863055,842.28357126546,1.1732806405289,3.1682403397743,2423.0053782725,0.00040618656203151,0.016781810671091,-1.777205824852,80.357175588663,3.1682403397743,20.73605562949,0.63180007443627,0,0.33946610732372,3.0079908540258,2.9016954387318,1.1728639046072,0,0.63180007443627,
1.2225000765175,1298.2381561415,842.28909420536,1.1734741034434,3.2008778919095,2431.6857320332,0.00024085491895676,0.016836887225509,-1.7768734693527,80.361793203282,3.2008778919095,20.664963038114,0.63822187101424,0,0.3383718754398,3.046568264199,2.9407780714902,1.1729846747493,0,0.63822187101424,
1.2315000770614,1298.2097179734,842.29468057712,1.1736474392164,3.2372335638374,2440.5375306107,0.00013071624562144,0.016966773197055,-1.7766287326813,80.366419835354,3.2372335638374,20.628082217026,0.64465012545765,0,0.33715101376845,3.0847013391119,2.9795853096702,1.1731154085616,0,0.64465012545765,
1.2405000776052,1298.1809276384,842.30040122717,1.173682872834,3.2863414370675,2449.3664198516,0.00032044411636889,0.017124641686678,-1.7764091491699,80.371055299329,3.2863414370675,20.519100011136,0.65108623559947,0,0.33595591420471,3.1250293570409,3.0182431855566,1.173230152243,0,0.65108623559947,
1.2495000781491,1298.1517184618,842.30617634428,1.1735381872448,3.3232759674186,2458.0368447391,0.00034685269929469,0.017256196588278,-1.7761660814285,80.375699448568,3.3232759674186,20.436296816118,0.65752889754656,0,0.33489130654561,3.1646786465366,3.0572562153154,1.1732921210238,0,0.65752889754656,
1.259000078775,1298.1221994197,842.31196164011,1.1735058641239,3.3588857893195,2466.684355373,0.00022536679171026,0.017286846414208,-1.7758491039276,80.380352148721,3.3588857893195,20.380951398993,0.66433109720298,0,0.3339745570516,3.2035200702444,3.0962432332844,1.1733341620214,0,0.66433109720298,
1.2680000793189,1298.090724922,842.31813634213,1.1736968848481,3.3960973501203,2476.0309398407,0.00017054378986359,0.017459977418184,-1.7755806446075,80.385272181032,3.3960973501203,20.31367484241,0.67078391788425,0,0.33258870469684,3.2420354928411,3.1353956944156,1.173404272862,0,0.67078391788425,
1.2770000798628,1298.0605013587,842.32410381938,1.1737928061909,3.4473811037035,2484.6974607393,0.00023687491193414,0.017640799283981,-1.7753905057907,80.389898362577,3.4473811037035,20.215877376169,0.67724576282144,0,0.3315480278881,3.2831045981913,3.174694862875,1.173482605988,0,0.67724576282144,
1.2865000804886,1298.0298940317,842.33009396729,1.1736784421464,3.4817240569517,2493.2884926825,0.00022607366554439,0.017734726890922,-1.7750771045685,80.394580660483,3.4817240569517,20.125179428476,0.6840715511806,0,0.33069640836815,3.3228285310006,3.214152834346,1.1735242678119,0,0.6840715511806,
1.2960000811145,1297.9972517824,842.33648558025,1.1735620625454,3.5184830567119,2502.4930716002,0.00016467785462737,0.017792746424675,-1.7747807502747,80.399530902156,3.5184830567119,20.088124602021,0.69090039976047,0,0.32956637025692,3.361959409502,3.2538279704492,1.1735313235437,0,0.69090039976047,
1.3050000816584,1297.9642457496,842.34296376846,1.1736221739675,3.5619016712208,2511.7463757265,0.00019300635904074,0.017962794750929,-1.7745087146759,80.404442568991,3.5619016712208,19.993497846544,0.69737833791908,0,0.32828261936514,3.4019478414749,3.2936981051955,1.1735486506395,0,0.69737833791908,
1.3145000822842,1297.9325669438,842.34916317352,1.1737304164626,3.6066676402794,2520.343853403,0.00024988781660795,0.018155366182327,-1.7742918729782,80.409107853293,3.6066676402794,19.902305675104,0.70422633607508,0,0.32744661757161,3.4428918245868,3.3337632918193,1.1735842084068,0,0.70422633607508,
1.3235000828281,1297.8987681889,842.35574980872,1.1736435314397,3.6404830943043,2529.3896852689,0.00010742875747383,0.018124205991626,-1.7739502191544,80.414090944239,3.6404830943043,19.821028404237,0.71071235281315,0,0.32633480441415,3.4824100401748,3.374037925707,1.1735968713107,0,0.71071235281315,
1.332500083372,1297.8664010136,842.36205050824,1.1736241143092,3.6853144091039,2538.0609382088,0.00012384401634336,0.01827541552484,-1.7736644744873,80.418773185509,3.6853144091039,19.774621516121,0.71720594439114,0,0.32532853560195,3.5229909155169,3.414032081212,1.173602781625,0,0.71720594439114,
1.3415000839159,1297.8336721198,842.36848273908,1.1735967136025,3.7245976537574,2546.7237104442,0.00025153672322631,0.018460443243384,-1.7734540700912,80.423510797541,3.7245976537574,19.670001046137,0.72370881395503,0,0.32433622189845,3.5633122709114,3.4540246800148,1.1736012871515,0,0.72370881395503,
1.3505000844598,1297.8005648429,842.37487925627,1.1735329335788,3.7635081515339,2555.2613321405,0.00011534010991454,0.018477343022823,-1.7731455564499,80.42825369438,3.7635081515339,19.579440602735,0.73021253143268,0,0.32344375490784,3.6033514330164,3.4940159380884,1.1735884805879,0,0.73021253143268,
1.3595000850037,1297.7671578942,842.38139191706,1.1735484199151,3.8025957621376,2563.835762745,0.00010916078463197,0.018534561619163,-1.7728582620621,80.433001849468,3.8025957621376,19.533199543352,0.7367191203584,0,0.32252815432733,3.6432002694905,3.5337597895027,1.1735798327415,0,0.7367191203584,
1.3685000855476,1297.7333702274,842.38796921651,1.1735854561766,3.8411963209518,2572.4626181242,0.00013017631135881,0.018676593899727,-1.7726056575775,80.43775520429,3.8411963209518,19.446341187083,0.7432328411168,0,0.32157914749337,3.6827994753123,3.5735641613293,1.1735804961752,0,0.7432328411168,
1.3775000860915,1297.6992106573,842.3945673308,1.1735469848873,3.8853849829854,2580.9545589115,0.00013577635399997,0.018797552213073,-1.7723286151886,80.442513692323,3.8853849829854,19.361156965107,0.74975264014701,0,0.32073845691058,3.7233165875435,3.61344946978,1.1735756625041,0,0.74975264014701,
1.3860000865534,1297.6647361271,842.40128395194,1.1734366509168,3.9222750139243,2589.5171049736,0.00011263857595623,0.018799718469381,-1.7720439434052,80.447277261179,3.9222750139243,19.28922724553,0.755910330928,0,0.31972482545753,3.7631082833099,3.6531171445648,1.1735485974395,0,0.755910330928,
1.3950000870973,1297.6318340269,842.40765810295,1.1734475437479,3.958128259917,2597.6798869758,0.00017076963558793,0.018876615911722,-1.7717555761337,80.451780910976,3.958128259917,19.224331975615,0.76243410528364,0,0.31895465107702,3.8021122694244,3.6923970416864,1.1735277083273,0,0.76243410528364,
1.4040000876412,1297.5966465124,842.41442111766,1.1734898298954,4.0030041648812,2606.1665768649,0.00011590914800763,0.019014811143279,-1.771500825882,80.456600647261,4.0030041648812,19.14326276225,0.76896483246557,0,0.31813258416817,3.8422906303589,3.7318773615901,1.1735203668876,0,0.76896483246557,
1.413500088267,1297.5611226761,842.42130697306,1.1734626203004,4.0384585546524,2614.6494693655,8.3446269854903e-05,0.019043250009418,-1.7712152004242,80.461373902247,4.0384585546524,19.051073644315,0.77585988888405,0,0.31744020225955,3.8815241737512,3.7713677683309,1.1735092723691,0,0.77585988888405,
1.422000088729,1297.5232322302,842.42863374739,1.1733869767339,4.0799532823189,2623.7697829477,0.00014001852832735,0.019045187160373,-1.7708801031113,80.466417961282,4.0799532823189,18.995666389844,0.78202924191802,0,0.31621349954328,3.9212099777339,3.8113216240275,1.1734848041791,0,0.78202924191802,
1.4310000892729,1297.4889868409,842.43518910525,1.1733495997673,4.1215418278565,2631.786655042,0.00012012664228678,0.019150191918015,-1.7706423997879,80.470891791641,4.1215418278565,18.918221312565,0.78856678571387,0,0.31557099240814,3.9612763775729,3.8508353296175,1.1734585777488,0,0.78856678571387,
1.4400000898167,1297.4524031091,842.44225062052,1.1733221620219,4.1581842290611,2640.261831254,8.0653000622988e-05,0.019197428599,-1.7703523635864,80.475732760316,4.1581842290611,18.813053790096,0.79510670919886,0,0.31477490487737,4.000657912361,3.8903957417214,1.1734313261959,0,0.79510670919886,
1.4495000904426,1297.4154651738,842.44937236558,1.1733002448354,4.1963877605609,2648.8243471036,0.00011974410153925,0.019194604828954,-1.7700451612473,80.480526134287,4.1963877605609,18.766153086696,0.80200981162572,0,0.31403903192727,4.0398038834472,3.9299634782953,1.1734048519495,0,0.80200981162572,
1.4585000909865,1297.3760779626,842.4568696357,1.1732688719699,4.238422082991,2657.8404242754,6.4600724726915e-05,0.019271723926067,-1.7697623968124,80.48559122697,4.238422082991,18.685646096438,0.80855347927454,0,0.3130331389659,4.0795274901501,3.9700070451485,1.173378522711,0,0.80855347927454,
1.4680000916123,1297.3384116504,842.46411909073,1.1732240543047,4.2837764248058,2666.3108274022,5.0730537623167e-05,0.019309904426336,-1.7694742679596,80.490347178529,4.2837764248058,18.594042766517,0.81546271574127,0,0.31237477513346,4.1203772487729,4.0100173815716,1.173348447098,0,0.81546271574127,
1.4770000921562,1297.2982767676,842.4718105928,1.1731667339461,4.3213197367785,2675.323552197,7.908046245575e-05,0.019334573298693,-1.7691296339035,80.495428573567,4.3213197367785,18.53599746392,0.82200955198224,0,0.31138045985291,4.1605657150339,4.0503230941001,1.1733127756227,0,0.82200955198224,
1.4865000927821,1297.2598716228,842.47909683303,1.1731065721239,4.3612488429173,2683.8767867092,3.0463328585029e-05,0.019387044012547,-1.7688782215118,80.500198998231,4.3612488429173,18.458072929185,0.82892289462452,0,0.31066855879428,4.2007023660335,4.0905615529778,1.1732718168345,0,0.82892289462452,
1.4960000934079,1297.2189602347,842.48695022392,1.1730779695343,4.4032295688175,2692.9134527823,3.3665681257844e-05,0.019401855766773,-1.7685650587082,80.505295673447,4.4032295688175,18.353409730604,0.83583702591267,0,0.30978678604633,4.2412078355148,4.1312001579096,1.1732330893395,0,0.83583702591267,
1.5050000939518,1297.1776508982,842.49479702918,1.1730394327842,4.447954735447,2701.8929993949,1.5583354979753e-06,0.019399410113692,-1.7682111263275,80.510345513518,4.447954735447,18.310459188713,0.84238713214975,0,0.30883016858104,4.2825571993505,4.172076100754,1.1731955746744,0,0.84238713214975,
1.5140000944957,1297.1381453197,842.50228452872,1.1729713578115,4.4889531864357,2710.4296837768,-2.2902386263013e-05,0.019482666626573,-1.7679625749588,80.515139232204,4.4889531864357,18.223479303185,0.8489414391628,0,0.3080215264,4.3238363821916,4.2128160434144,1.1731516631392,0,0.8489414391628,
1.5235000951216,1297.0982915999,842.50991402293,1.1729140736197,4.5256077179394,2719.0290300177,2.9286602512002e-05,0.019481290131807,-1.7676365375519,80.519990889614,4.5256077179394,18.121499332873,0.85585980105296,0,0.30729067054898,4.3641906229347,4.2533942570033,1.1731040646193,0,0.85585980105296,
1.5325000956655,1297.0558206495,842.51793272505,1.1728408884926,4.5670494132402,2728.0244763827,-3.2691052183509e-05,0.019457466900349,-1.7673199176788,80.52511574651,4.5670494132402,18.078503709987,0.86241283637988,0,0.30633487241275,4.404762399013,4.2943184939815,1.1730519429491,0,0.86241283637988,
1.5415000962093,1297.0152162639,842.52562387774,1.1727969763733,4.611280893658,2736.5544681492,-6.6265463829041e-05,0.019501082599163,-1.7670471668243,80.529925135254,4.611280893658,17.979864278756,0.86896807285884,0,0.30554179357279,4.4460661028347,4.3351910088693,1.173002020172,0,0.86896807285884,
1.5505000967532,1296.974277566,842.53339860894,1.1727707652003,4.6515973256077,2745.0744616045,-3.4996075555682e-05,0.019516995176673,-1.7666980028152,80.534793142076,4.6515973256077,17.906012018678,0.87552411253537,0,0.30475959880135,4.4871723822372,4.3758194902925,1.1729568128997,0,0.87552411253537,
1.5595000972971,1296.9329531796,842.54116859802,1.1726799140065,4.6920450164485,2753.590491731,-7.8790122643113e-05,0.019538678228855,-1.7664365768433,80.539664619573,4.6920450164485,17.845690232656,0.88208124679668,0,0.30398391647793,4.5281468527808,4.4164171583961,1.1729018358559,0,0.88208124679668,
1.568500097841,1296.8912736475,842.54905476482,1.1725989614971,4.7284753468811,2762.2195367828,-9.6896663308144e-05,0.019535003229976,-1.766120672226,80.544539760787,4.7284753468811,17.741274319403,0.88863819553028,0,0.30312903599248,4.5682125009929,4.457022410036,1.1728413794971,0,0.88863819553028,
1.5775000983849,1296.8492412544,842.55697728775,1.1725345873911,4.7694550811339,2770.7807815598,-0.00010069459676743,0.019510298967361,-1.7657785415649,80.549418736071,4.7694550811339,17.695002197112,0.89519389720235,0,0.302326574193,4.6084609920053,4.497506508351,1.1727812126904,0,0.89519389720235,
1.5865000989288,1296.8068279221,842.56493303613,1.1724742531596,4.8168036381406,2779.30698874,-0.00014485092833638,0.019574720412493,-1.7655353546143,80.554301708682,4.8168036381406,17.606986526087,0.90175285121677,0,0.30155392735837,4.6501294846748,4.5381294322973,1.1727210152649,0,0.90175285121677,
1.5955000994727,1296.7640835911,842.57299376995,1.1724199613311,4.8531877081096,2787.8353388575,-0.00013094861060381,0.019577531144023,-1.7651829719543,80.559188850554,4.8531877081096,17.515329637091,0.90831194715965,0,0.30078296583995,4.6907410999468,4.5786289082341,1.1726614847583,0,0.90831194715965,
1.6040000999346,1296.7209629342,842.58107309963,1.1723361100111,4.8956509210441,2796.358972947,-0.00014297384768724,0.019563788548112,-1.764878988266,80.564080297257,4.8956509210441,17.477285723856,0.91450599348328,0,0.29989971968624,4.731723052687,4.6191210831302,1.1725966942154,0,0.91450599348328,
1.6130001004785,1296.6798956569,842.5887747806,1.1722502666555,4.9308904197338,2804.4757035635,-0.00014685490168631,0.0195865444839,-1.764608502388,80.568704204792,4.9308904197338,17.37433144377,0.92106554457208,0,0.29925137932736,4.7715564588122,4.6592859335818,1.1725280055874,0,0.92106554457208,
1.6215001009405,1296.6360728652,842.59699182553,1.1721753535658,4.9707772518484,2813.0303998805,-0.00016214256174862,0.019558975473046,-1.7642531394958,80.573655873963,4.9707772518484,17.306728885164,0.92725936138014,0,0.29835225281783,4.8114005740016,4.699488568948,1.1724586065192,0,0.92725936138014,
1.6300001014024,1296.5943377584,842.60478032369,1.1721209148541,5.0142648303282,2821.092708832,-0.00018884986639023,0.019603341817856,-1.7640074491501,80.578283223287,5.0142648303282,17.242821843872,0.93345529407668,0,0.29763089205187,4.8519733759188,4.7394131093393,1.1723922392193,0,0.93345529407668,
1.6390001019463,1296.5522967686,842.61263157678,1.1720604930833,5.0520567588415,2829.157317631,-0.00020185229368508,0.019617602229118,-1.7636721134186,80.582964282956,5.0520567588415,17.148772879556,0.94001641366748,0,0.29702878038598,4.8919900586147,4.7790034031208,1.1723267714551,0,0.94001641366748,
1.6475001024082,1296.5074242773,842.62100847086,1.1719821218612,5.0936556788264,2837.679565991,-0.00014810333959758,0.019602920860052,-1.7633576393127,80.587920842519,5.0936556788264,17.10244345554,0.94621232628545,0,0.2961633373431,4.9323231641403,4.8187937907645,1.172258399357,0,0.94621232628545,
1.6570001030341,1296.4646979892,842.62895849891,1.1718963347814,5.1302896718885,2845.7741910276,-0.00021124281920493,0.019622774794698,-1.7630895376205,80.592553348373,5.1302896718885,17.008214064899,0.95313822832832,0,0.29566256670572,4.9719165375989,4.8584077018316,1.1721865355409,0,0.95313822832832,
1.666000103578,1296.4165811616,842.63790869992,1.1718179147056,5.1727472308441,2854.8123171854,-0.0002106602769345,0.019639225676656,-1.7627116441727,80.597792630788,5.1727472308441,16.94286399373,0.95970044012909,0,0.29473244154616,5.0120826571116,4.8986311640592,1.1721133327037,0,0.95970044012909,
1.6750001041219,1296.3706026569,842.6464472333,1.1717484757214,5.2127648119339,2863.3989367758,-0.0002092313952744,0.019652400165796,-1.7624497413635,80.602652109312,5.2127648119339,16.876795380657,0.96626331744602,0,0.29394874164732,5.0522190736873,4.9390738078953,1.1720412282586,0,0.96626331744602,
1.6850001048297,1296.3242667434,842.65503380785,1.171666576482,5.2511068443036,2871.9459809984,-0.00025516306050122,0.019653530791402,-1.7620918750763,80.607576678807,5.2511068443036,16.78760258045,0.97355546689196,0,0.29343017542362,5.0919966067587,4.9795880372526,1.1719672368717,0,0.97355546689196,
1.6945001054555,1296.2723602075,842.66464947516,1.1715920542288,5.2987646144961,2881.5091009515,-0.00020880764350295,0.019666479900479,-1.7617604732513,80.613055506918,5.2987646144961,16.737731374884,0.9804836993598,0,0.29243371335141,5.1333502265385,5.0210936590196,1.1718932856521,0,0.9804836993598,
1.7035001059994,1296.2226234223,842.67383087595,1.1715092840409,5.3430257625467,2890.5649861616,-0.00028422963805497,0.0196777228266,-1.7614072561264,80.61815545939,5.3430257625467,16.644935160262,0.98523597874898,0,0.29092726745009,5.1752853181022,5.062949317627,1.1718175069015,0,0.98523597874898,
1.7130001066253,1296.1751422735,842.6826134891,1.1714523566861,5.3852727622768,2899.0283439816,-0.00019930582493544,0.019714718684554,-1.7610901594162,80.623058515054,5.3852727622768,16.583278087982,0.98728582218667,0,0.28880473626293,5.217282850429,5.1045841359559,1.1717457259116,0,0.98728582218667,
1.7225001072511,1296.1246153519,842.69189447281,1.1713740805844,5.4309670473586,2907.765075445,-0.0002907756716013,0.019719786942005,-1.7607561349869,80.628301904427,5.4309670473586,16.492439450683,0.98565465987648,0,0.28549980144403,5.2600196511623,5.1465551681092,1.1716728515956,0,0.98565465987648,
1.732000107877,1296.0736912864,842.70129109861,1.1713192681586,5.4735368745669,2916.0839921428,-0.00021416647359729,0.019797433167696,-1.7604061365128,80.633493809103,5.4735368745669,16.43450138326,0.98414889996538,0,0.28253942112261,5.3027231145761,5.1887664657251,1.171603465679,0,0.98414889996538,
1.7410001084208,1296.0223464256,842.7106913756,1.171231238799,5.5190517864098,2924.0662588098,-0.00028813793323934,0.019803622737527,-1.7600834369659,80.638697269192,5.5190517864098,16.350742672758,0.98352673995343,0,0.28010755804027,5.3459888020246,5.2312345394624,1.1715306715987,0,0.98352673995343,
1.7500001089647,1295.9733250868,842.71969914204,1.1711760275962,5.5617619211145,2931.3415990194,-0.00025373185053468,0.01990282535553,-1.7597460746765,80.643637181577,5.5617619211145,16.284949189132,0.98334395926554,0,0.27814327657433,5.3891434128355,5.2734720141993,1.1714605630892,0,0.98334395926554,
1.7590001095086,1295.9239321609,842.72872341762,1.1711053594286,5.6030422700441,2938.4466354957,-0.00028915889561176,0.019899614155293,-1.7594437599182,80.648640692055,5.6030422700441,16.208370784066,0.98303230754637,0,0.27318542568185,5.4319231554088,5.3155589605416,1.1713901950087,0,0.98303230754637,
1.7675001099706,1295.8741599754,842.73781879205,1.1710420345014,5.6438146240346,2944.879934337,-0.0003063811454922,0.019967762753367,-1.7590845823288,80.653647074026,5.6438146240346,16.143372169339,0.98139721379757,0,0.26808325667548,5.4743014370773,5.3575481816169,1.1713202630016,0,0.98139721379757,
1.7765001105145,1295.826813346,842.74646982923,1.1709768442316,5.6828160841496,2950.3527946359,-0.00029144389554858,0.019959010183811,-1.7587902545929,80.658377833129,5.6828160841496,16.072558306319,0.97796870737492,0,0.26307298582469,5.5160043553808,5.3990349327752,1.1712514666345,0,0.97796870737492,
1.7855001110584,1295.7762876907,842.75565006037,1.1708994827634,5.7267803578384,2955.5061721168,-0.0003506897483021,0.02001834101975,-1.7584507465363,80.663444051982,5.7267803578384,15.987143983416,0.97798825025265,0,0.25938810815159,5.5581595672209,5.4407119397504,1.171180789282,0,0.97798825025265,
1.7945001116022,1295.725393001,842.76495417353,1.1708440538841,5.7691833526859,2960.3559131429,-0.00029087578877807,0.020068442448974,-1.7581217288971,80.668451269283,5.7691833526859,15.91665653955,0.97594293344608,0,0.25524423757574,5.6003643809191,5.4825824454771,1.1711136139314,0,0.97594293344608,
1.8035001121461,1295.6740755544,842.77423284086,1.1707828658716,5.8156401269036,2965.0152028482,-0.00036317389458418,0.02016144245863,-1.7578024864197,80.67345996077,5.8156401269036,15.831775267287,0.97586453690605,0,0.25186426444329,5.6434194992726,5.5248111689366,1.1710476666197,0,0.97586453690605,
1.81250011269,1295.6223962903,842.78366211732,1.1707555322524,5.855675162462,2971.0732224999,-0.00031973118893802,0.02025087736547,-1.7574521303177,80.678469169819,5.855675162462,15.750075282851,0.97669108759519,0,0.24776018573025,5.685870643516,5.5672423525077,1.1709895681941,0,0.97669108759519,
1.8215001132339,1295.5703003868,842.79305816157,1.1707350679052,5.9035802645788,2977.5566784036,-0.00036350474692881,0.020356476306915,-1.7571445703506,80.683477893917,5.9035802645788,15.67087926873,0.97940699449171,0,0.24395269981874,5.729412552563,5.6099858986077,1.1709389409704,0,0.97940699449171,
1.8300001136959,1295.5178599451,842.80257957958,1.1707453971376,5.939722000874,2985.9497596463,-0.00036259228363633,0.020484805107117,-1.7567825317383,80.688485475902,5.939722000874,15.572190104258,0.98057532448532,0,0.23824135170725,5.7714744542819,5.6527023877094,1.1709003703819,0,0.98057532448532,
1.8390001142398,1295.4679805357,842.81157062436,1.1707582044174,5.981553391583,2994.8979627561,-0.00035622878931463,0.020561929792166,-1.7564924955368,80.69321368205,5.981553391583,15.497230184725,0.98173020209157,0,0.23209876873212,5.813490178965,5.6949317427786,1.1708718027295,0,0.98173020209157,
1.8475001147017,1295.4148291324,842.82116409426,1.1707746423308,6.0172846452751,3006.6900552844,-0.00040561286732554,0.020680919289589,-1.7561241388321,80.69827508993,6.0172846452751,15.38541315919,0.98550699341355,0,0.22471101229822,5.8542490218341,5.7370038964202,1.1708520480491,0,0.98550699341355,
1.8570001153275,1295.364316866,842.83026938653,1.1708133533216,6.0549220990799,3018.6577690073,-0.00035490514710546,0.020720381289721,-1.7558364868164,80.702996957526,6.0549220990799,15.312408876986,0.98619585690767,0,0.21613351407283,5.8943836382437,5.7783581525365,1.1708435637551,0,0.98619585690767,
1.8665001159534,1295.3075059983,842.84046740044,1.1708444347705,6.0913949581239,3033.9524541614,-0.00043226452544332,0.020796222612262,-1.7554377317429,80.708336033921,6.0913949581239,15.202874845386,0.9896013014292,0,0.20594682829135,5.9337858908501,5.8197664666398,1.1708432374634,0,0.9896013014292,
