time,vehicle x-position,vehicle y-position,vehicle z-position,velocity (m/s),revolutions per minute,roll (radians),pitch (radians),yaw (radians),water temperature (Celsius),velocity (m/s),rotation of the steering wheel,throttle,brake,clutch,airspeed,airflow speed,altitude,reverse,throttle,
0.010500000789762,1299.9630773111,841.51857539739,13.475037043798,0.75860701142207,1166.7816667617,-0.0027547739446163,0.01364092156291,-1.8078682422638,80.14540881195,0.75860701142207,30.068233063996,0.013911198352704,0,0.80526281314069,0.78242865751713,0.81009699985014,13.472858344539,0,0.013911198352704,
0.02000000141561,1299.9563953256,841.52071227979,13.470569383964,0.82706766461851,1149.8039891963,-0.0023668534122407,0.013721846044064,-1.8077412843704,80.144383561566,0.82706766461851,30.044627339149,0,0,0.80526281314069,0.79135646065497,0.79041302668751,13.472449044406,0,0,
0.030000002123415,1299.9503378965,841.52267334539,13.465486331581,0.88459008951864,1126.46081754,-0.0019179228693247,0.013849661685526,-1.8076165914536,80.143426795662,0.88459008951864,30.02456723438,0,0,0.80526281314069,0.8100031863882,0.78197462930442,13.471114333486,0,0,
0.044500002637506,1299.9439668619,841.52475074887,13.459211139067,0.95032952052804,1099.8168854595,-0.0015045872423798,0.013954667374492,-1.8075091838837,80.142411349296,0.95032952052804,30.003226524706,0.010117361668046,0,0.84064075104546,0.83806845754257,0.78492184936333,13.468801066093,0,0.010117361668046,
0.058500003069639,1299.9346817124,841.52778058294,13.448223720887,1.0769932443567,1066.7647963913,-0.00083869462832808,0.013928142376244,-1.8073608875275,80.140894189447,1.0769932443567,29.940388950073,0,0,0.84064075104546,0.88585341143506,0.80499908494416,13.464769399017,0,0,
0.072000003419816,1299.9256616948,841.53072749176,13.435512834752,1.1798401898358,1026.1194815539,-0.00016274070367217,0.013899778015912,-1.8072139024734,80.139373607624,1.1798401898358,29.858566596902,0.0094155891572882,0,0.87616215944179,0.94465077056803,0.84124691619446,13.459014730334,0,0.0094155891572882,
0.08600000385195,1299.9169106266,841.53347991715,13.421629276243,1.3100455992547,993.48904193139,0.00037070945836604,0.013960853219032,-1.8070240020752,80.137903637394,1.3100455992547,29.805233007363,0,0,0.87616215944179,1.0177297364419,0.89036003219263,13.451648391628,0,0,
0.099000004120171,1299.907364212,841.53685085445,13.405530725548,1.3702915800966,949.09108705218,0.00046064588241279,0.014483199454844,-1.8074001073837,80.136346950182,1.3702915800966,29.780190350967,0.0091081075610007,0,0.90814170609238,1.0882421072916,0.95342369450868,13.442541247482,0,0.0091081075610007,
0.1130000045523,1299.8985433969,841.53902746888,13.389935690444,1.4281761818879,917.76418584195,6.0435850173235e-05,0.015425496734679,-1.806795835495,80.134906306572,1.4281761818879,29.736156180849,0.018988896935022,0,0.92168898240219,1.1562289187587,1.0201212769647,13.43214445581,0,0.018988896935022,
0.12650000490248,1299.8887736517,841.54215474422,13.372129630123,1.4984540874303,894.81401303547,-0.00023389840498567,0.017320876941085,-1.8068723678589,80.133334597497,1.4984540874303,29.975032762054,0.028657724168718,0,0.93142738856876,1.2246739537936,1.091736603252,13.420271343152,0,0.028657724168718,
0.14000000525266,1299.8792250949,841.54469332994,13.354881970328,1.4485622051183,882.66535248744,-0.001497317571193,0.019219079986215,-1.8066160678864,80.131832465363,1.4485622051183,29.777323593326,0.038469245513577,0,0.93720427058017,1.2694515920815,1.1594802287991,13.407319026121,0,0.038469245513577,
0.15350000560284,1299.869968178,841.54705776322,13.338321070769,1.3867170868755,880.33131461499,-0.0032472778111696,0.02046836540103,-1.8061903715134,80.130383811124,1.3867170868755,29.920826921561,0.048375537643892,0,0.93983066787342,1.2929046898792,1.2140612481257,13.393639148814,0,0.048375537643892,
0.1660000057891,1299.8607304553,841.5490674602,13.322482945514,1.346396536896,887.1822077928,-0.0045056063681841,0.021868661046028,-1.8058965206146,80.129010589311,1.346396536896,29.920891744219,0.057647141982421,0,0.93962772307387,1.3036030649908,1.2542039536016,13.379523135457,0,0.057647141982421,
0.17850000597537,1299.8524411038,841.5514739611,13.308636466449,1.255658931241,900.70841873443,-0.005331763997674,0.022845337167382,-1.8059285879135,80.127825845577,1.255658931241,29.860462210613,0.066988348560665,0,0.93742156241189,1.2940142488295,1.2789814060987,13.365451508549,0,0.066988348560665,
0.19100000616163,1299.8444104537,841.55358033999,13.295818626764,1.1940306166224,920.75807444706,-0.0066360682249069,0.023781288415194,-1.8057380914688,80.126743346006,1.1940306166224,29.826644960255,0.076396622147373,0,0.93322346968327,1.2740175275655,1.2878262429286,13.351624436209,0,0.076396622147373,
0.20300000626594,1299.8362771495,841.5554494183,13.283375362749,1.186107114968,946.38109362265,-0.0079079614952207,0.024832610040903,-1.805416226387,80.125760453851,1.186107114968,29.908601756757,0.085501298172698,0,0.9271218050238,1.2564354537846,1.2867378734627,13.338072734697,0,0.085501298172698,
0.21500000637025,1299.8287122542,841.5572347018,13.272240035119,1.0816327186201,975.25448423014,-0.0093466397374868,0.025716880336404,-1.8051375150681,80.124917287146,1.0816327186201,29.962186334109,0.094667489923124,0,0.919714202444,1.2214749096967,1.2753521079285,13.324994244277,0,0.094667489923124,
0.22650000732392,1299.8214912966,841.55920508175,13.262312673818,1.0101548150465,1007.6784206923,-0.010411054827273,0.02626146748662,-1.8051024675369,80.124181544624,1.0101548150465,29.885005683923,0.10348821255923,0,0.91072504463117,1.1792108725816,1.2519686360727,13.312537128209,0,0.10348821255923,
0.2380000082776,1299.8145326628,841.56096126337,13.253755495942,0.93018616216838,1041.3362586995,-0.011548591777682,0.026580080389977,-1.8049205541611,80.123571135293,0.93018616216838,29.914397354937,0.11233031581684,0,0.9008574757332,1.1294059285569,1.2196171156224,13.300850243949,0,0.11233031581684,
0.24950000923127,1299.807625978,841.56254117949,13.246425106307,0.84711734322899,1077.226779411,-0.012481089681387,0.026667699217796,-1.804619550705,80.123059701699,0.84711734322899,29.931886084688,0.12117830557217,0,0.88970061772527,1.0729482157268,1.1782989638373,13.29002368576,0,0.12117830557217,
0.26100001018494,1299.8008093791,841.56428385158,13.240289066569,0.78813480814901,1114.9005770604,-0.013103943318129,0.02661269903183,-1.8045728206635,80.122637915554,0.78813480814901,29.939278910236,0.13002259990545,0,0.87732389646492,1.0159855352432,1.1296175231397,13.28012628656,0,0.13002259990545,
0.27200001105666,1299.7940151976,841.56591022594,13.23525369601,0.71063518623613,1153.9244961488,-0.013868603855371,0.02618445828557,-1.8044896125793,80.122302030334,0.71063518623613,29.947084277085,0.13845487535784,0,0.86374388135496,0.9549154652429,1.0752639142561,13.271189652295,0,0.13845487535784,
0.28350001201034,1299.787676024,841.56739795007,13.231740258751,0.64042285385048,1192.1089113778,-0.014328664168715,0.025595415383577,-1.8043256998062,80.122061825908,0.64042285385048,29.991124375078,0.14723102762613,0,0.84995702113046,0.89201694832423,1.0165273998489,13.26332604282,0,0.14723102762613,
0.29450001288205,1299.7811527299,841.56868507508,13.229364769453,0.59635038600147,1232.8174090483,-0.014944645576179,0.024699207395315,-1.8040343523026,80.121899909057,0.59635038600147,29.925845362505,0.15556849893092,0,0.83441155621416,0.83288363302691,0.95448477302476,13.256548972073,0,0.15556849893092,
0.30550001375377,1299.7749807705,841.57002161818,13.228385305671,0.57384670839523,1272.1466800794,-0.015056539326906,0.023676438257098,-1.8039215803146,80.121813879441,0.57384670839523,29.87844883204,0.16384115284821,0,0.81882316481584,0.78107624598299,0.89261657980668,13.25091922374,0,0.16384115284821,
0.31650001462549,1299.7688518673,841.57145729494,13.228667226107,0.57667320149601,1311.6169064224,-0.014815012924373,0.022585639730096,-1.8039280176163,80.121811338573,0.57667320149601,29.777865666913,0.17204509530303,0,0.80257156423352,0.74019563871983,0.83444355319013,13.246461392176,0,0.17204509530303,
0.32750001549721,1299.7627086662,841.57266644951,13.229958953307,0.58758450872995,1350.9874408802,-0.01469049975276,0.021291418001056,-1.8037781715393,80.121882240211,0.58758450872995,29.788031779978,0.18016806850405,0,0.78578397495577,0.70967341008475,0.7833920350875,13.243145752534,0,0.18016806850405,
0.33800001628697,1299.7565953587,841.57372030754,13.232124552917,0.60897542540065,1390.1805188365,-0.014548031613231,0.019877217710018,-1.8035219907761,80.122027952954,0.60897542540065,29.669029571284,0.18783801749635,0,0.76842941468633,0.68953381016009,0.74166627575601,13.240917625892,0,0.18783801749635,
0.34850001707673,1299.7508347642,841.57484511776,13.235006046409,0.63473400548789,1427.0719419431,-0.014219643548131,0.01860492117703,-1.803551197052,80.122240561762,0.63473400548789,29.630185811367,0.19543315893963,0,0.75171917876714,0.67857385503572,0.71034148017283,13.239704849615,0,0.19543315893963,
0.35900001786649,1299.7451287219,841.57599918832,13.238502968627,0.65626046769611,1463.4516663213,-0.0140844238922,0.017346139997244,-1.8036720752716,80.122538443976,0.65626046769611,29.467668908596,0.20295482735512,0,0.7348259148232,0.67411118211208,0.68907421572777,13.239429094231,0,0.20295482735512,
0.36950001865625,1299.7394036604,841.57712143837,13.242521745036,0.6933814738885,1499.1908028407,-0.013960130512714,0.016061266884208,-1.8037360906601,80.122914592143,0.6933814738885,29.371107742462,0.21040205086927,0,0.7178599839396,0.6779652433543,0.67714335714795,13.240006524591,0,0.21040205086927,
0.37950001936406,1299.733598293,841.57826401552,13.247121059947,0.72896027344745,1534.1076749346,-0.013709308579564,0.014919924549758,-1.8038024902344,80.123375932463,0.72896027344745,29.410406738147,0.21743210741932,0,0.70087707407887,0.68816424981345,0.67403047637159,13.241383614753,0,0.21743210741932,
0.39000002015382,1299.7279803552,841.57943688559,13.251859477285,0.75661533110228,1566.483080669,-0.013487534597516,0.013888358138502,-1.8038378953934,80.123904401593,0.75661533110228,29.446030702824,0.22475469286547,0,0.68507671184168,0.70185446799269,0.67785499776216,13.243430187396,0,0.22475469286547,
0.40000002086163,1299.721967739,841.58083823183,13.257082859171,0.78038279338137,1599.6668765497,-0.013007197529078,0.012972737662494,-1.8039662837982,80.124571930078,0.78038279338137,29.569869655944,0.23167901350068,0,0.66846145018774,0.71756013679879,0.68706856795002,13.246110574477,0,0.23167901350068,
0.41050002165139,1299.7160677791,841.58229059116,13.262085389113,0.79353177982662,1630.2409360704,-0.012382009066641,0.012300207279623,-1.8041332960129,80.125300006612,0.79353177982662,29.514012367317,0.23891149711026,0,0.65320293059046,0.73275446453394,0.69932773214856,13.24925566997,0,0.23891149711026,
0.42050002235919,1299.7096646103,841.58379068893,13.267261963469,0.7992972520773,1661.4067903111,-0.011789068579674,0.011791907250881,-1.8041224479675,80.126201157642,0.7992972520773,29.64284144073,0.24577228018413,0,0.63732362182784,0.74606301433803,0.7130087097667,13.252808390346,0,0.24577228018413,
0.43100002314895,1299.7034099525,841.58520369451,13.272074941284,0.80340896832066,1689.9911317704,-0.011228388175368,0.011506982147694,-1.8040412664413,80.12717237814,0.80340896832066,29.619837709909,0.25296007376979,0,0.62290724993155,0.75753220754434,0.72647160928904,13.256613968441,0,0.25296007376979,
0.4405000237748,1299.6967251458,841.58683724254,13.277003718642,0.80762379227121,1719.0198949114,-0.010424412786961,0.011397096328437,-1.8040554523468,80.128355923873,0.80762379227121,29.578877201369,0.25945772902181,0,0.60792075311799,0.76755052675858,0.73909193787145,13.260645865305,0,0.25945772902181,
0.45050002448261,1299.6905129913,841.58836823249,13.281281578718,0.81169962834152,1744.2128291419,-0.0097286589443684,0.01140994951129,-1.8040429353714,80.129554716968,0.81169962834152,29.583831485103,0.26629805380388,0,0.59523777081102,0.77638034717286,0.75036505868568,13.264729117476,0,0.26629805380388,
0.46050002519041,1299.6837697616,841.58997947355,13.28559001557,0.81985540250491,1769.8754887762,-0.008971968665719,0.011535030789673,-1.8039610385895,80.131012024688,0.81985540250491,29.440779184098,0.27314507310188,0,0.58224241464813,0.78507535613413,0.76052929966079,13.268858985204,0,0.27314507310188,
0.47050002589822,1299.6768417515,841.59158027732,13.28965676084,0.81847270896185,1794.7146702554,-0.0082875667139888,0.011862209998071,-1.8038063049316,80.132613268615,0.81847270896185,29.354079645125,0.28000962670268,0,0.56971490317233,0.79175482159325,0.76940100597085,13.272979415336,0,0.28000962670268,
0.48050002660602,1299.6696773341,841.59316105599,13.29336582814,0.82649211232247,1818.6395154382,-0.0078773507848382,0.012338227592409,-1.8036466836929,80.13439299728,0.82649211232247,29.307693877841,0.28689975132072,0,0.55774566995299,0.79870228342587,0.77694457138969,13.277021532757,0,0.28689975132072,
0.49050002731383,1299.6622382081,841.59482699151,13.296689629249,0.83581741709316,1841.5246056421,-0.0075307707302272,0.013035304844379,-1.8035640716553,80.136357742364,0.83581741709316,29.152621334251,0.29382745080604,0,0.54645207922548,0.80612530606885,0.78369311782037,13.28092337092,0,0.29382745080604,
0.50000002793968,1299.6546082995,841.59649414707,13.299727654943,0.83958178630944,1863.5466344619,-0.0073327329009771,0.013843860477209,-1.803514122963,80.13850440624,0.83958178630944,28.920741938554,0.30045035269174,0,0.53561725499422,0.81281660237233,0.79000949694566,13.284654811543,0,0.30045035269174,
0.51000002864748,1299.6471845577,841.59801566024,13.302392525817,0.85397065104358,1883.6797184446,-0.0073708700947464,0.014601605944335,-1.8033187389374,80.140713083322,0.85397065104358,28.816073679098,0.30746304169808,0,0.52608503661461,0.82104742319043,0.79622113572639,13.288175356803,0,0.30746304169808,
0.52000002935529,1299.6391256337,841.59968910334,13.304955911124,0.87032404056657,1904.082995081,-0.007347131613642,0.015406027436256,-1.8030754327774,80.143226116188,0.87032404056657,28.830640329965,0.31451968236568,0,0.51648362415254,0.83090274167582,0.80319074286684,13.291506777142,0,0.31451968236568,
0.53000003006309,1299.6308434348,841.60147393637,13.307358278915,0.89013814548562,1923.632038686,-0.0071915313601494,0.016321681439877,-1.8029024600983,80.145872093875,0.89013814548562,28.600536929387,0.32162660324053,0,0.50749784017532,0.84274982319295,0.8114080825938,13.294653518942,0,0.32162660324053,
0.5400000307709,1299.6223400426,841.60335069254,13.309655479337,0.90984523545089,1942.5312503253,-0.0069973450154066,0.017234241589904,-1.8027297258377,80.148674572916,0.90984523545089,28.434312393733,0.32878390129086,0,0.49898816821848,0.85616890514707,0.821171112815,13.297631918547,0,0.32878390129086,
0.54950003139675,1299.6135570671,841.60529958464,13.311758125048,0.93657128624057,1960.6942629267,-0.0067630801349878,0.018124982714653,-1.8025515079498,80.151625039898,0.93657128624057,28.380693082929,0.33563029338316,0,0.49090651500543,0.87224938412361,0.83271706736839,13.300437688158,0,0.33563029338316,
0.55950003210455,1299.6049125267,841.60718813523,13.313485529121,0.95874069670641,1977.3074472626,-0.0065420609898865,0.019073788076639,-1.8023482561111,80.154561073387,0.95874069670641,28.227104712723,0.34288995578995,0,0.48395479800514,0.88954764954132,0.84595367222433,13.303030585707,0,0.34288995578995,
0.5690000327304,1299.5955527189,841.60914479856,13.31498705093,0.9761926968128,1994.4907779059,-0.0064613367430866,0.020056487992406,-1.8021047115326,80.157809290806,0.9761926968128,27.974787669424,0.34983901015177,0,0.47662575025024,0.90687665026889,0.86061317848687,13.305408362914,0,0.34983901015177,
0.57850003335625,1299.5864205384,841.61102792955,13.316185596985,1.0029517157422,2010.3015367612,-0.0064883823506534,0.021037457510829,-1.801899433136,80.160981258465,1.0029517157422,27.901123592194,0.3568406443583,0,0.47018315236469,0.92609166845882,0.87637002172092,13.307551864281,0,0.3568406443583,
0.5880000339821,1299.5770209937,841.61301395856,13.317240930868,1.029877028435,2025.4980940142,-0.0064469613134861,0.022061046212912,-1.801729798317,80.164292771531,1.029877028435,27.720826889284,0.36389746031967,0,0.46422472517728,0.94684874808951,0.89365278007205,13.309479144013,0,0.36389746031967,
0.5980000346899,1299.5673992498,841.61505728416,13.318154800014,1.0484217366235,2040.307639874,-0.0064974036067724,0.023019047454,-1.8015848398209,80.167704470489,1.0484217366235,27.565559895108,0.37138036223145,0,0.45870871929075,0.96716334657799,0.91216153956743,13.311205599146,0,0.37138036223145,
0.60750003531575,1299.5570232459,841.6172953728,13.318945994895,1.0806726767906,2055.575247366,-0.0065053575672209,0.023983197286725,-1.8014591932297,80.17139642812,1.0806726767906,27.43683065287,0.37854168216177,0,0.45290674706654,0.98986520160779,0.93197394257619,13.312746599068,0,0.37854168216177,
0.6170000359416,1299.5468472915,841.61952100854,13.319555730201,1.1141720799175,2069.7815576026,-0.0065397541038692,0.024957360699773,-1.8013702630997,80.174967518932,1.1141720799175,27.237586983176,0.38575640666686,0,0.44776860917662,1.0147265814904,0.95325632767545,13.314102995197,0,0.38575640666686,
0.62700003664941,1299.5363532128,841.6217510653,13.319964915059,1.1444503320814,2083.6425236737,-0.0066360598430037,0.025937391445041,-1.8012512922287,80.178662121094,1.1444503320814,27.25299335562,0.39340772414802,0,0.44305108730713,1.0406713265708,0.97599968017473,13.315271844705,0,0.39340772414802,
0.63700003735721,1299.5250065482,841.62414234702,13.320243209717,1.1731514157761,2097.8574866705,-0.0067890281789005,0.026970114558935,-1.8010641336441,80.182638533452,1.1731514157761,27.091709737321,0.40111931493546,0,0.4382630240885,1.0671673360293,1.0002158856498,13.316263954035,0,0.40111931493546,
0.64650003798306,1299.5134154169,841.62665053738,13.320432730201,1.1968073953852,2111.9266121393,-0.0068879588507116,0.028023866936564,-1.8009723424911,80.18666732947,1.1968073953852,27.024748636885,0.40850409978719,0,0.43348297376755,1.0930953457216,1.0255247335519,13.317096169942,0,0.40850409978719,
0.65600003860891,1299.5021624459,841.62915778883,13.320534629795,1.2316736328748,2124.8738766322,-0.0068609197624028,0.028969859704375,-1.8009110689163,80.190578346074,1.2316736328748,27.044349818583,0.41594194852251,0,0.4294171204065,1.1208109962352,1.0512566789695,13.317783495707,0,0.41594194852251,
0.66550003923476,1299.4905788137,841.6317344807,13.320549371244,1.2618829118766,2137.6878615487,-0.0070098717696965,0.029784236103296,-1.8007982969284,80.194599937046,1.2618829118766,27.007879048554,0.42342570695039,0,0.42547847345021,1.1490253772265,1.077856415487,13.318336598812,0,0.42342570695039,
0.67550003994256,1299.4787669157,841.63434502773,13.320560117928,1.2857708844313,2150.3323928944,-0.0070897177793086,0.030640373006463,-1.8006980419159,80.198690309563,1.2857708844313,26.976271488306,0.43135439240659,0,0.42183289548339,1.1763744804006,1.1048862170988,13.318781179379,0,0.43135439240659,
0.68500004056841,1299.4659925163,841.6371429759,13.320517171953,1.3276086088188,2163.402717917,-0.0070284651592374,0.031562127172947,-1.8005435466766,80.203065391507,1.3276086088188,26.93242776225,0.43893911596562,0,0.41792670673277,1.206621301392,1.1328707561345,13.319129023703,0,0.43893911596562,
0.69450004119426,1299.453539726,841.63992413797,13.32040718509,1.3562665968819,2175.7876277192,-0.0071240738034248,0.032344378530979,-1.8004899024963,80.20725225471,1.3562665968819,26.902722538729,0.44656858515108,0,0.41439660056639,1.2365503646686,1.1615658700824,13.319386509063,0,0.44656858515108,
0.70400004182011,1299.4408165243,841.64288012164,13.320197421092,1.3934436000313,2187.6773540094,-0.0071232998743653,0.033089969307184,-1.8004655838013,80.211540064556,1.3934436000313,26.841931094671,0.45424088693861,0,0.41127119105608,1.2679290086233,1.1908121109295,13.31955129862,0,0.45424088693861,
0.71350004244596,1299.4277423912,841.64585426539,13.319863522749,1.4262307351585,2199.6651324638,-0.0071925180964172,0.033916044980288,-1.8003771305084,80.215885644093,1.4262307351585,26.849516342263,0.46196085534351,0,0.4080964985748,1.2995893645448,1.2209342479935,13.319618471147,0,0.46196085534351,
0.72300004307181,1299.4143423888,841.64874344839,13.319390722365,1.4613137255288,2211.5414459528,-0.0073535684496164,0.034628052264452,-1.8002027273178,80.22028667203,1.4613137255288,26.865097629316,0.46972208625593,0,0.40503117040392,1.3319342365394,1.2515229273026,13.319578367616,0,0.46972208625593,
0.73250004369766,1299.4006231675,841.65172818814,13.318884819142,1.49117365654,2223.2169320189,-0.007452807854861,0.03549887612462,-1.800016283989,80.224740883134,1.49117365654,26.840721935694,0.47753400808255,0,0.40214694162963,1.36378211423,1.282727431312,13.319444623109,0,0.47753400808255,
0.7420000443235,1299.3866665691,841.65485208223,13.318425469621,1.5198372440491,2234.6565228138,-0.0076132621616125,0.036217387765646,-1.7999765872955,80.229246172236,1.5198372440491,26.785799001063,0.48538794130456,0,0.3994674757745,1.3949931195914,1.3140707103847,13.319245502564,0,0.48538794130456,
0.75150004494935,1299.3724493445,841.65805001518,13.318052484721,1.5463428481119,2246.133435413,-0.0078369285911322,0.036793634295464,-1.7998937368393,80.23380048903,1.5463428481119,26.731283602796,0.49327568993487,0,0.39678019925192,1.4252630417776,1.3451762269686,13.319010102918,0,0.49327568993487,
0.7610000455752,1299.3579328193,841.66124466732,13.317762974828,1.5860981920469,2257.4465328514,-0.007920291274786,0.037470649927855,-1.7997397184372,80.238401829214,1.5860981920469,26.742083821146,0.50120330670006,0,0.39424125400244,1.4574300722465,1.3762572821578,13.318764181272,0,0.50120330670006,
0.77050004620105,1299.3430361034,841.66447860358,13.317439895549,1.6190987160179,2268.7425907389,-0.008038429543376,0.038002654910088,-1.7995785474777,80.243048240143,1.6190987160179,26.720138345481,0.50916235809494,0,0.39173508827675,1.4897638143051,1.407820496289,13.318502594102,0,0.50916235809494,
0.77950004674494,1299.3278266855,841.66787318952,13.317154585668,1.661678712613,2279.9179217251,-0.0082288514822721,0.038585260510445,-1.7994540929794,80.247737876206,1.661678712613,26.673434006066,0.51673522617074,0,0.38919719675743,1.5241467858114,1.4398977067693,13.318236294642,0,0.51673522617074,
0.78900004737079,1299.3130786094,841.67117066438,13.316792006728,1.6960071959786,2290.4127995633,-0.0084017841145396,0.039129421114922,-1.79929459095,80.25221993426,1.6960071959786,26.64148094057,0.52476116350072,0,0.38716441785593,1.558518878997,1.4723637506663,13.3179517295,0,0.52476116350072,
0.79800004791468,1299.297172558,841.67455879792,13.316278963779,1.7252476766438,2301.4222596331,-0.0085840150713921,0.039680350571871,-1.7990788221359,80.257028983184,1.7252476766438,26.608841040365,0.53239581046484,0,0.38479137029218,1.5918646513467,1.5053485000371,13.317623178644,0,0.53239581046484,
0.80750004854053,1299.2818684469,841.67785150216,13.31572129304,1.7539399367871,2311.7541801773,-0.0088657680898905,0.040196198970079,-1.7988539934158,80.26157841853,1.7539399367871,26.536429644322,0.54048546042185,0,0.38291999377521,1.6242797183232,1.5379723997306,13.317248758064,0,0.54048546042185,
0.81650004908442,1299.2654619883,841.68146926191,13.315317357765,1.7797878521472,2322.6092247976,-0.0090839471668005,0.040691807866096,-1.798711180687,80.266456645101,1.7797878521472,26.459965638854,0.54817750325324,0,0.38070062156785,1.6553813542713,1.5704134060058,13.316865107526,0,0.54817750325324,
0.82600004971027,1299.2496854425,841.68486494452,13.315206610664,1.8067424737012,2332.8631547646,-0.0092399194836617,0.041037321090698,-1.7984924316406,80.271068346099,1.8067424737012,26.380480356833,0.55631765554532,0,0.3789204404019,1.6856535932055,1.6021179877212,13.316534154502,0,0.55631765554532,
0.83550005033612,1299.2327246825,841.68847855904,13.315237644304,1.8484712747336,2343.7097540525,-0.0094958869740367,0.04134352132678,-1.7982486486435,80.276010431908,1.8484712747336,26.316838109488,0.56447625117367,0,0.37688281425269,1.7182171075051,1.6336951512091,13.316274732659,0,0.56447625117367,
0.84450005088001,1299.2153443504,841.69234850837,13.315205837542,1.8954943089193,2354.2455922763,-0.0097416872158647,0.041465371847153,-1.7981352806091,80.280938863007,1.8954943089193,26.228256557547,0.57221240837058,0,0.37494463445418,1.7536725543741,1.6661607947344,13.316060519465,0,0.57221240837058,
0.85400005150586,1299.1985084068,841.69607228281,13.315214662376,1.9310795157772,2364.0510429826,-0.009751258417964,0.041742410510778,-1.7978892326355,80.285638004008,1.9310795157772,26.153711387693,0.58039507724761,0,0.37354005453923,1.7891539448741,1.6994116804118,13.315892009932,0,0.58039507724761,
0.86350005213171,1299.1804183016,841.69981844604,13.315059908935,1.9582182693533,2374.5093538428,-0.010079868137836,0.041909981518984,-1.7975330352783,80.290669534614,1.9582182693533,26.116738352351,0.58858787503,0,0.3718303808797,1.8229667992785,1.7330914657207,13.315727447667,0,0.58858787503,
0.87300005275756,1299.1620828374,841.70384184788,13.314936734853,1.9889794398557,2385.0409949376,-0.010281491093338,0.042010832577944,-1.7973092794418,80.295682353752,1.9889794398557,25.979249339481,0.59678677333122,0,0.37007431822192,1.8561693311846,1.7666909393384,13.31556890424,0,0.59678677333122,
0.88250005338341,1299.1435076291,841.70793890224,13.315162865352,2.0166638516291,2395.5383968419,-0.010301480069757,0.042053047567606,-1.7970747947693,80.30072293262,2.0166638516291,25.847878224262,0.60498822624446,0,0.36835205070286,1.8882682228975,1.8000094411146,13.315484221903,0,0.60498822624446,
0.89200005400926,1299.1246238239,841.71192859494,13.315625004252,2.0521489206474,2405.8407758676,-0.010474307462573,0.041994538158178,-1.7968000173569,80.305789856076,2.0521489206474,25.756125194078,0.61318613865937,0,0.36678258088545,1.9210443421119,1.8330099199113,13.315506884358,0,0.61318613865937,
0.90150005463511,1299.1053181972,841.71621276547,13.316132318738,2.1078140380883,2415.752843334,-0.010691359639168,0.041735418140888,-1.7966322898865,80.310881789309,2.1078140380883,25.628810093083,0.62136838508367,0,0.36550810668678,1.9583982884021,1.8668723753211,13.3156261038,0,0.62136838508367,
0.91150005534291,1299.0855967137,841.72053729984,13.316725633738,2.1395850155486,2425.7204033243,-0.010616993531585,0.041608016937971,-1.7963509559631,80.315997446147,2.1395850155486,25.545897047005,0.62997317690045,0,0.36434037112372,1.9946356343533,1.9018306295965,13.315841070113,0,0.62997317690045,
0.92100005596876,1299.0644907663,841.72500404477,13.317127827437,2.1778660174866,2436.4380422903,-0.010759241878986,0.041412938386202,-1.7960481643677,80.321405878262,2.1778660174866,25.486855969235,0.63813595807561,0,0.36264564679925,2.0312817038937,1.9373781332091,13.316095059154,0,0.63813595807561,
0.93100005667657,1299.0441407042,841.72951812118,13.317528724359,2.2086397157384,2446.6551174018,-0.01075404509902,0.041121061891317,-1.795814871788,80.326521228783,2.2086397157384,25.335105648575,0.64670984562901,0,0.36129208936603,2.0667532874619,1.9729038913024,13.316376260946,0,0.64670984562901,
0.94050005730242,1299.0223981838,841.73414444661,13.318250008826,2.2397382482693,2457.3323636131,-0.010752870701253,0.040768999606371,-1.7954813241959,80.331978904944,2.2397382482693,25.227348135571,0.65483386185528,0,0.35962833065572,2.1013502751569,2.0085377088366,13.316742175444,0,0.65483386185528,
0.95050005801022,1299.0013962983,841.73868848372,13.319183450396,2.2880853779572,2467.0498989322,-0.010880595073104,0.04039641469717,-1.7953276634216,80.337137453071,2.2880853779572,25.12105118236,0.66336191438393,0,0.35864451841531,2.1386973122581,2.0443068497322,13.317220301329,0,0.66336191438393,
0.96050005871803,1298.9788374638,841.74362682173,13.320195460539,2.3307558394492,2477.2814672895,-0.010914846323431,0.039861187338829,-1.795077085495,80.342638527215,2.3307558394492,24.978114501334,0.67185623115713,0,0.35745004648562,2.1771090396106,2.0812347215765,13.317805934667,0,0.67185623115713,
0.97000005934387,1298.955837007,841.74846485202,13.320954913095,2.3710604186169,2487.6977119523,-0.010998722165823,0.039469327777624,-1.7947791814804,80.348108530943,2.3710604186169,24.949240228084,0.67990242819109,0,0.35597379840679,2.2158993059682,2.1188237414641,13.318428364372,0,0.67990242819109,
0.98000006005168,1298.9336798269,841.75334228418,13.321640215592,2.4039285076859,2497.7290658577,-0.01080073043704,0.039074923843145,-1.7945493459702,80.353325371422,2.4039285076859,24.830581689526,0.68834736786592,0,0.3547441396295,2.2535051484336,2.156341532539,13.319063255767,0,0.68834736786592,
0.98950006067753,1298.9099982112,841.75830600393,13.322474028686,2.4406529601552,2508.2019827781,-0.010830543003976,0.03860878944397,-1.7942345142365,80.358884397189,2.4406529601552,24.7212410926,0.69634234781824,0,0.35322117027523,2.2909346882049,2.1938703375424,13.319735773071,0,0.69634234781824,
0.99950006138533,1298.8871341192,841.76323209747,13.323540707941,2.4862555368082,2517.678176656,-0.010887405835092,0.038093823939562,-1.7940548658371,80.364131127472,2.4862555368082,24.613541671855,0.70472597699246,0,0.35239314832213,2.3299988320306,2.2316350235434,13.320484548938,0,0.70472597699246,
1.0090000620112,1298.8626434782,841.7685048063,13.324759671748,2.5280055819884,2527.6468988496,-0.010853781364858,0.037583459168673,-1.7938381433487,80.369720298027,2.5280055819884,24.505685407313,0.71266025153534,0,0.35123430555173,2.3696001856196,2.270312873037,13.3213290454,0,0.71266025153534,
1.018500062637,1298.8389444475,841.77351409025,13.325573341081,2.5694034799925,2537.3350910668,-0.010932276025414,0.037151284515858,-1.7935833930969,80.374993196543,2.5694034799925,24.441648822376,0.72056904270783,0,0.35010085308017,2.4095608304873,2.3091848592054,13.322170009697,0,0.72056904270783,
1.0285000633448,1298.814911516,841.778662934,13.326264359461,2.6032123117413,2547.2476529628,-0.010706346482038,0.036739252507687,-1.7932289838791,80.380327661561,2.6032123117413,24.350858396487,0.72886857193833,0,0.34893659006865,2.4482911357033,2.3479111274156,13.322981636114,0,0.72886857193833,
1.0385000640526,1298.7892351809,841.78410822625,13.327094905053,2.6484639102603,2557.3870657008,-0.010573542676866,0.036398146301508,-1.7930396795273,80.385951261816,2.6484639102603,24.264381979745,0.73714702334886,0,0.34778169797761,2.4883257014551,2.3869662825324,13.323794015556,0,0.73714702334886,
1.0485000647604,1298.7631339149,841.78971420217,13.32821388806,2.6896887975431,2567.2428410407,-0.010569019243121,0.035937421023846,-1.792817234993,80.391532740811,2.6896887975431,24.100527754496,0.74539706913837,0,0.34683066939585,2.528598345359,2.426864714945,13.324665934491,0,0.74539706913837,
1.0580000653863,1298.7366033804,841.7953311615,13.329360230167,2.7373900724152,2577.0657262739,-0.010491692461073,0.035565696656704,-1.7925583124161,80.397127767,2.7373900724152,24.047466338064,0.75321289083861,0,0.34576520291089,2.5703566845575,2.4673904669481,13.325594258823,0,0.75321289083861,
1.0680000660941,1298.7109983921,841.80079871879,13.33013086404,2.7733961034433,2586.7570578864,-0.010303037241101,0.035211659967899,-1.792255282402,80.402454799116,2.7733961034433,23.95013642832,0.76141833880575,0,0.34475141721465,2.6109645506794,2.507833233849,13.326495228226,0,0.76141833880575,
1.0775000667199,1298.6836572862,841.80662192428,13.330735926487,2.8200403003389,2596.932935098,-0.0099863652139902,0.035014171153307,-1.791999578476,80.408124155975,2.8200403003389,23.857900181303,0.76920201527359,0,0.34342757581667,2.6527796857401,2.5483499935276,13.327336738916,0,0.76920201527359,
1.0875000674278,1298.6572523877,841.81224700919,13.331454585881,2.861080236131,2606.2731375545,-0.0098243905231357,0.034769456833601,-1.7917522192001,80.413465536946,2.861080236131,23.725233341031,0.77738037877547,0,0.34266999673693,2.6944398302113,2.5891033308511,13.328151663472,0,0.77738037877547,
1.0975000681356,1298.6290538302,841.81819938106,13.332479063771,2.9022832227539,2615.9759731714,-0.0097041446715593,0.034594587981701,-1.7915134429932,80.419149628858,2.9022832227539,23.623596167617,0.78554805027025,0,0.3418257398973,2.7360085025052,2.6306023038868,13.329005972806,0,0.78554805027025,
1.1070000687614,1298.6004727466,841.82428526305,13.333405924641,2.9427222054169,2626.0622923062,-0.0094709154218435,0.034350551664829,-1.7912405729294,80.424785476189,2.9427222054169,23.509456659801,0.79329317974587,0,0.34056964521756,2.7773512184318,2.6722725421146,13.329879010728,0,0.79329317974587,
1.1165000693873,1298.5729132562,841.83009795449,13.333969640595,2.9847955070255,2635.6239346191,-0.0092326579615474,0.034244142472744,-1.7909619808197,80.430148459615,2.9847955070255,23.420866452158,0.80103214168357,0,0.33952033079715,2.8188400888202,2.713469345566,13.330692072718,0,0.80103214168357,
1.1265000700951,1298.5449057271,841.83603479897,13.334425079249,3.0362801419192,2644.8580044312,-0.0088951271027327,0.034147460013628,-1.79068338871,80.435569193136,3.0362801419192,23.312226279229,0.80917252210376,0,0.33884262706448,2.8623281020925,2.7548959884615,13.331434265779,0,0.80917252210376,
1.1360000707209,1298.5150292146,841.84234802364,13.335192367427,3.0705891394862,2654.6364833715,-0.0086035672575235,0.034206122159958,-1.7904682159424,80.44127746501,3.0705891394862,23.188406848616,0.81690928125572,0,0.33782057573445,2.9039803424681,2.7969433811165,13.332176602687,0,0.81690928125572,
1.1455000713468,1298.4863059889,841.84836550674,13.335982655979,3.1123724583836,2664.1087176773,-0.0084987757727504,0.034037601202726,-1.7901872396469,80.446652192502,3.1123724583836,23.056508633671,0.82463628245706,0,0.33684457044803,2.9456588013335,2.8386372206097,13.332930117294,0,0.82463628245706,
1.1550000719726,1298.4571618064,841.85447133519,13.336666758803,3.1569518026595,2673.5197131275,-0.0082872156053782,0.034114170819521,-1.7899235486984,80.452085047772,3.1569518026595,22.972868045982,0.83236771616112,0,0.3359181791511,2.9879174219261,2.8802151582627,13.333671974694,0,0.83236771616112,
1.1650000726804,1298.4275545074,841.86066750658,13.336950462863,3.2061791137578,2682.6847993624,-0.0080541539937258,0.034076184034348,-1.7896517515182,80.457519552286,3.2061791137578,22.863306961874,0.84050375248156,0,0.33530262830394,3.0315697659406,2.9220673006367,13.334324397688,0,0.84050375248156,
1.1745000733063,1298.3960208778,841.86728163902,13.337465948229,3.2389879483061,2692.5888872342,-0.0077674868516624,0.034273836761713,-1.789360165596,80.463242002403,3.2389879483061,22.746715681877,0.84824443514665,0,0.3342089470968,3.0730533972862,2.964265216318,13.334947616295,0,0.84824443514665,
1.1840000739321,1298.3656906354,841.87357447701,13.337997922454,3.2790774112861,2702.0680340888,-0.0076952492818236,0.034267522394657,-1.7891029119492,80.468628920394,3.2790774112861,22.626912540094,0.85598475188219,0,0.33324854184499,3.1142582238104,3.0061793239333,13.33555166756,0,0.85598475188219,
1.193500074558,1298.3349627054,841.87995271967,13.338606744173,3.32960084203,2711.2892188725,-0.0075824544765055,0.034436274319887,-1.7888168096542,80.474074856237,3.32960084203,22.507373795505,0.86373485257264,0,0.33247928768316,3.1573267412492,3.0480587888891,13.336158123293,0,0.86373485257264,
1.2030000751838,1298.3038091267,841.88644680587,13.338954493855,3.3638935155871,2720.5265095299,-0.0074406657367945,0.03459245339036,-1.7885664701462,80.47952235017,3.3638935155871,22.40937819806,0.87149401652664,0,0.33170485158055,3.1986400470979,3.0900478688188,13.336713287575,0,0.87149401652664,
1.2125000758097,1298.2723196098,841.89299672833,13.339268327936,3.4084346363692,2729.9121972507,-0.0072742970660329,0.034740407019854,-1.7882415056229,80.484971562799,3.4084346363692,22.294880009003,0.87926177374176,0,0.33083115003391,3.2405989635664,3.1316540978199,13.33722093371,0,0.87926177374176,
1.2220000764355,1298.2404015806,841.89959437007,13.339623771615,3.4494066313979,2739.2520318452,-0.0071914186701179,0.034855104982853,-1.7879322767258,80.490422580765,3.4494066313979,22.195016859601,0.88703619761315,0,0.32999583111044,3.2823604956212,3.1733100527005,13.337697241048,0,0.88703619761315,
1.2315000770614,1298.2081166338,841.9063193581,13.340060179282,3.4921464031274,2748.4759282257,-0.0071080373600125,0.035112753510475,-1.7876747846603,80.495875525928,3.4921464031274,22.067243755724,0.89482561258533,0,0.32925092469838,3.3243176472141,3.2150748819889,13.338164689811,0,0.89482561258533,
1.2410000776872,1298.1754700561,841.91309178504,13.340513968178,3.5300354603269,2757.8128190095,-0.0069996817037463,0.035305202007294,-1.7873656749725,80.501330585651,3.5300354603269,21.947095102844,0.90262623917653,0,0.32843302398003,3.3654612169229,3.2566013694431,13.338630964495,0,0.90262623917653,
1.2505000783131,1298.1424181124,841.91994492535,13.34085862589,3.5764189407156,2767.1538613597,-0.0069492012262344,0.03542472794652,-1.7870533466339,80.506787879276,3.5764189407156,21.846651867019,0.91043383517167,0,0.32761792102494,3.4076527488679,3.2980874348184,13.339072648793,0,0.91043383517167,
1.2600000789389,1298.1089299858,841.92688757731,13.341149213335,3.617341749033,2776.3603744746,-0.0068864575587213,0.03563405200839,-1.7867243289948,80.51224750955,3.617341749033,21.737427284872,0.91825364783351,0,0.32690484591971,3.4495905504585,3.3398303165833,13.339484933305,0,0.91825364783351,
1.2695000795648,1298.0751313609,841.93391030136,13.341554165027,3.6541105846715,2785.7120032746,-0.0067389039322734,0.035898484289646,-1.7864419221878,80.517709642933,3.6541105846715,21.618527874458,0.92608891390169,0,0.32609783780591,3.490494526701,3.3812896549543,13.339894106617,0,0.92608891390169,
1.2785000801086,1298.0409251942,841.94099541308,13.341965426804,3.6973672898309,2795.0962760046,-0.0067401779815555,0.036023989319801,-1.7860907316208,80.523174373545,3.6973672898309,21.49448227132,0.93351875357261,0,0.32514347785879,3.5318690596237,3.4227163267009,13.340303842728,0,0.93351875357261,
1.2880000807345,1298.0081202094,841.94775820625,13.342391587874,3.7401530007847,2803.7585717692,-0.0067647905088961,0.036125842481852,-1.7857844829559,80.528354060506,3.7401530007847,21.389652100219,0.94136732474213,0,0.3246576646692,3.5735258625519,3.4639517841237,13.3407168901,0,0.94136732474213,
1.2975000813603,1297.9731799942,841.95503043773,13.342835925559,3.7768557879841,2813.0270279666,-0.0066308230161667,0.036403901875019,-1.7854845523834,80.533878440358,3.7768557879841,21.266915877067,0.94923219109585,0,0.32392792763445,3.6141918314752,3.505114426414,13.341136591914,0,0.94923219109585,
1.3070000819862,1297.9378373299,841.96231334211,13.343201289777,3.8194213241629,2822.4844750457,-0.0066705723293126,0.036547347903252,-1.785138964653,80.539345606179,3.8194213241629,21.161144317027,0.95710547376771,0,0.32307220253284,3.6552377234504,3.5461340826351,13.341545595553,0,0.95710547376771,
1.3160000825301,1297.9020518734,841.96970652314,13.343591776713,3.8667548979396,2831.7102990147,-0.0066504827700555,0.036609511822462,-1.7848255634308,80.544816416824,3.8667548979396,21.050595208509,0.96456783042813,0,0.32225256987448,3.6975411804999,3.5875584349313,13.341950236818,0,0.96456783042813,
1.3255000831559,1297.8678539215,841.97677100936,13.344071636437,3.8957458413047,2840.4371556998,-0.0066669452935457,0.036807708442211,-1.7845085859299,80.550002815468,3.8957458413047,20.937601055318,0.97245640632383,0,0.32174458973088,3.7371820952483,3.628439320348,13.342369317262,0,0.97245640632383,
1.3350000837818,1297.8313872316,841.98425496533,13.344603130025,3.9400974832524,2849.8615912132,-0.00670648785308,0.036954551935196,-1.7841798067093,80.555536067829,3.9400974832524,20.839422028687,0.98035361742668,0,0.32092914412793,3.7777651425988,3.6692207441507,13.342811011671,0,0.98035361742668,
1.3440000843257,1297.7944737421,841.99187443344,13.345038130266,3.9884347422017,2859.1604835952,-0.0067152958363295,0.036985274404287,-1.7838671207428,80.56101195466,3.9884347422017,20.730086858694,0.98349201332977,0,0.31872109019668,3.819899072392,3.7103729236745,13.343252105235,0,0.98349201332977,
1.3535000849515,1297.7591862537,841.99912585644,13.345503130578,4.0213043228803,2867.7104909912,-0.0067339697852731,0.037097975611687,-1.7835311889648,80.566203899199,4.0213043228803,20.627451971189,0.98099653033968,0,0.3151106827934,3.8601800840244,3.7510315409202,13.343697867965,0,0.98099653033968,
1.3625000854954,1297.7215772306,842.00682089481,13.346040999259,4.0617955209991,2876.4170945261,-0.0067392685450613,0.037230614572763,-1.7832038402557,80.571744408225,4.0617955209991,20.538904253534,0.97723425718031,0,0.31117585197049,3.9005031141556,3.7916573231139,13.344160145263,0,0.97723425718031,
1.3720000861213,1297.6855386335,842.0142261255,13.346564214842,4.1056252541466,2884.1644579807,-0.0068171480670571,0.037270322442055,-1.7829078435898,80.576938884568,4.1056252541466,20.426850111704,0.98243496611493,0,0.31053550551451,3.941527521842,3.8322606042797,13.344635252746,0,0.98243496611493,
1.3815000867471,1297.6471439835,842.02208080902,13.347136885359,4.1453385242549,2892.2463677004,-0.0068335388787091,0.037287972867489,-1.7825636863708,80.582482898406,4.1453385242549,20.326637468429,0.98285755496043,0,0.3055830080841,3.9822897245354,3.8730380023142,13.345130351855,0,0.98285755496043,
1.390500087291,1297.6083525401,842.02997020131,13.347693430649,4.1922718560175,2899.6843258811,-0.0069062588736415,0.037369482219219,-1.7822234630585,80.587969029556,4.1922718560175,20.248442088754,0.97629592061022,0,0.29834864705334,4.0242861215168,3.9139821596638,13.345636675893,0,0.97629592061022,
1.4000000879169,1297.571213098,842.0375789511,13.348232104017,4.2287573983577,2905.8493007877,-0.0069465297274292,0.037415485829115,-1.7819218635559,80.593170846842,4.2287573983577,20.145461651541,0.97053504051873,0,0.29222234961223,4.0651803735012,3.9548809105314,13.346149500322,0,0.97053504051873,
1.4095000885427,1297.5316421252,842.04564646224,13.348812777695,4.2706858497037,2911.3825847164,-0.0069441734813154,0.037394378334284,-1.7815827131271,80.598722307211,4.2706858497037,20.047072521417,0.97845815826044,0,0.29084203659674,4.106281433353,3.9959895749217,13.346675917396,0,0.97845815826044,
1.4190000891685,1297.4916146221,842.05375237254,13.349430624261,4.3258102361481,2916.7378711251,-0.0070770969614387,0.037441179156303,-1.7812427282333,80.60421376457,4.3258102361481,19.965571529155,0.97289101560391,0,0.28531510392164,4.1501871378018,4.0376917949776,13.347220456512,0,0.97289101560391,
1.4285000897944,1297.4511897105,842.06201272586,13.350073074591,4.3634076444334,2921.3665432019,-0.0070510813966393,0.037489328533411,-1.7809329032898,80.609707625274,4.3634076444334,19.870838761842,0.96814415862192,0,0.28054144155225,4.1928312326108,4.0798795407184,13.347784261633,0,0.96814415862192,
1.4385000905022,1297.4103641647,842.07030115786,13.350709207676,4.4077544667507,2925.3318882077,-0.0070974482223392,0.037468951195478,-1.7805955410004,80.615202366549,4.4077544667507,19.783463015308,0.96706435644622,0,0.27739167207657,4.2358158703355,4.1222951082522,13.348362335149,0,0.96706435644622,
1.4480000911281,1297.3668772173,842.07909986487,13.351372971956,4.4588463271244,2929.0387194171,-0.007196300663054,0.037503227591515,-1.7802209854126,80.620985607475,4.4588463271244,19.704211860918,0.96921737714103,0,0.27545082845627,4.2804220100806,4.1658385013052,13.348957736161,0,0.96921737714103,
1.4575000917539,1297.3251504959,842.08758772496,13.352025391654,4.5027942928827,2932.4418092088,-0.0071367076598108,0.037533968687057,-1.7798979282379,80.626419651048,4.5027942928827,19.615388808507,0.97115679625042,0,0.27365484485808,4.3248964612139,4.2096806696659,13.349564519617,0,0.97115679625042,
1.4675000924617,1297.2829852733,842.09608429961,13.352718004306,4.5521739864857,2935.6055270121,-0.0072365496307611,0.037575930356979,-1.7795716524124,80.631913282982,4.5521739864857,19.521864501038,0.96200950443435,0,0.26847527398959,4.370351987239,4.2538492148404,13.350187847688,0,0.96200950443435,
1.4770000930876,1297.2381345811,842.10517791059,13.353460795708,4.6015353822271,2938.3179172795,-0.0072746798396111,0.037624023854733,-1.7792143821716,80.637689142016,4.6015353822271,19.43703441372,0.95993492701384,0,0.26587433898357,4.4165886538476,4.298882728043,13.350835283339,0,0.95993492701384,
1.4865000937134,1297.1950876978,842.11385916351,13.354123984911,4.6464236639762,2940.5963067447,-0.0072536049410701,0.037624526768923,-1.7788547277451,80.643109888066,4.6464236639762,19.363736920197,0.95029840741273,0,0.26114369617575,4.4625556864142,4.3439866107486,13.351485983324,0,0.95029840741273,
1.4960000943393,1297.1515722368,842.12260304167,13.354802070138,4.6928070702903,2942.3244304943,-0.0073516517877579,0.037690263241529,-1.7785218954086,80.648585075793,4.6928070702903,19.278785214911,0.93533371980864,0,0.25506971341147,4.5086059886455,4.3894820055789,13.35214139286,0,0.93533371980864,
1.5055000949651,1297.1076571897,842.13148682134,13.355520377849,4.7375828561159,2943.3298510279,-0.0072926902212203,0.037705153226852,-1.7781779766083,80.654048420506,4.7375828561159,19.1805580264,0.92201751463294,0,0.25002814530145,4.5544013276291,4.4350501888137,13.352809534576,0,0.92201751463294,
1.5155000956729,1297.0632633348,842.14037421404,13.356213985004,4.7873051947578,2943.6879752027,-0.0073389494791627,0.037739187479019,-1.7778508663177,80.659498413665,4.7873051947578,19.10912840519,0.90382348471035,0,0.24384844475224,4.6009821331177,4.4809449667248,13.353483475134,0,0.90382348471035,
1.5250000962988,1297.0160767625,842.14985992498,13.356961130736,4.8360179212333,2943.4703172407,-0.0073660346679389,0.037812065333128,-1.7774515151978,80.665219515426,4.8360179212333,19.017260918525,0.86535656325854,0,0.23141182112045,4.6479893235901,4.5275307460239,13.354171400774,0,0.86535656325854,
1.5340000968426,1296.9707846213,842.15892290568,13.357682743976,4.8842792978278,2941.4858421566,-0.0073521411977708,0.037820421159267,-1.7771073579788,80.670578910359,4.8842792978278,18.949807413494,0.79841448089826,0,0.21071632556614,4.6952473090918,4.5741799007742,13.354866509047,0,0.79841448089826,
1.5435000974685,1296.9274731646,842.16756700352,13.358331923009,4.929341789575,2936.8992688096,-0.0074224625714123,0.037895958870649,-1.7767486572266,80.675699554163,4.929341789575,18.841644405443,0.70178794865261,0,0.18165761089141,4.7420662058855,4.6204577550004,13.355552676842,0,0.70178794865261,
1.5530000980943,1296.8813281886,842.17679037878,13.35905202767,4.9802013030613,2933.6665476638,-0.0073844301514328,0.0379420183599,-1.7763673067093,80.681142420416,4.9802013030613,18.758855664802,0.52109199955194,0,0.12173804760839,4.7896932135792,4.666813839651,13.35624485296,0,0.52109199955194,
1.5625000987202,1296.8347355002,842.18605747126,13.359775964949,5.0242118757062,2938.5021578713,-0.0074373236857355,0.038043823093176,-1.776024222374,80.686495117747,5.0242118757062,18.665022132343,0.52905348734592,0,0.12075927399212,4.8365969475724,4.7133779439742,13.356943743086,0,0.52905348734592,
1.5715000992641,1296.7877363907,842.19542884565,13.360638969833,5.0710087406039,2932.6109706943,-0.007443112321198,0.038221463561058,-1.7756506204605,80.691808086319,5.0710087406039,18.557474893136,0.53660591523215,0,0.1280033126129,4.8834792945081,4.7598777702184,13.35767318142,0,0.53660591523215,
1.5810000998899,1296.7428034893,842.20433504257,13.36143634914,5.1154375682781,2922.3379211569,-0.0074861813336611,0.038273196667433,-1.7752752304077,80.696748894272,5.1154375682781,18.475064162657,0.54458098796422,0,0.13875685710149,4.9298709371324,4.805860780933,13.358417712311,0,0.54458098796422,
1.5905001005158,1296.6949256479,842.21380218602,13.362127225399,5.1621829752529,2926.3348471188,-0.0075530703179538,0.038340471684933,-1.774911403656,80.701908162474,5.1621829752529,18.378448463872,0.55256004843898,0,0.13844257461262,4.9763333112904,4.8520190423795,13.359151429065,0,0.55256004843898,
1.5995001010597,1296.6466218715,842.22337974497,13.362902719557,5.2053894667669,2925.0436072111,-0.0075239781290293,0.038401510566473,-1.7745090723038,80.706904957852,5.2053894667669,18.265312012729,0.56012258721517,0,0.1420698580638,5.0221445489651,4.8982381587083,13.359892897708,0,0.56012258721517,
1.6090001016855,1296.600444854,842.2324713227,13.363677055851,5.2491143898847,2915.3570111693,-0.0076000299304724,0.038502752780914,-1.7741515636444,80.711552839018,5.2491143898847,18.174186708,0.56811127309509,0,0.15229084148135,5.0675384464841,4.944131260304,13.360640758596,0,0.56811127309509,
1.6180001022294,1296.551314998,842.24218467431,13.364457779393,5.2967148650104,2919.7678527346,-0.007590445689857,0.038503509014845,-1.773766040802,80.716439164214,5.2967148650104,18.046875885963,0.57567954429538,0,0.15151947873091,5.1133737137303,4.9900089305149,13.361396022099,0,0.57567954429538,
1.6275001028553,1296.5043006712,842.25142229989,13.365233817436,5.3461635497187,2921.0717996938,-0.0076187248341739,0.038557708263397,-1.7734285593033,80.720945924123,5.3461635497187,17.955473013973,0.58367149173186,0,0.15327825431139,5.1599316255558,5.0358154139127,13.362154537406,0,0.58367149173186,
1.6365001033992,1296.4543080183,842.26126069657,13.366119882339,5.3811000755366,2913.8287468441,-0.0076330085285008,0.038683127611876,-1.7730045318604,80.725699264028,5.3811000755366,17.837413028654,0.59124986561508,0,0.16142764903139,5.2041653359976,5.081664606826,13.362938160869,0,0.59124986561508,
1.646000104025,1296.4065671342,842.27061333647,13.366892876184,5.4312343978596,2917.4185682478,-0.0076259667985141,0.038645800203085,-1.7726687192917,80.730097262764,5.4312343978596,17.749334127181,0.59924704330931,0,0.16143444725726,5.2495791407463,5.1268696188104,13.363720508554,0,0.59924704330931,
1.6550001045689,1296.3556692947,842.28059834655,13.367752244125,5.4817128632108,2918.80703134,-0.0076443357393146,0.038735710084438,-1.7722982168198,80.73475156678,5.4817128632108,17.618604881017,0.60682837661685,0,0.16297761307002,5.2960058762262,5.1726528643903,13.364516903669,0,0.60682837661685,
1.6645001051947,1296.3070986525,842.29007063201,13.368596117547,5.5164100964711,2915.5624589447,-0.0076531013473868,0.038782332092524,-1.7719045877457,80.739066282429,5.5164100964711,17.528616563248,0.61483366565244,0,0.16818964353172,5.3400866757734,5.217992229409,13.365322820116,0,0.61483366565244,
1.6735001057386,1296.2554342903,842.30013262009,13.369519607284,5.5648726695007,2918.7766972285,-0.0076701645739377,0.0388413220644,-1.7715519666672,80.743645372527,5.5648726695007,17.416027622035,0.62242094558709,0,0.16834167129093,5.3850438889586,5.2632499084051,13.366151993885,0,0.62242094558709,
1.6825001062825,1296.2060477345,842.30979171564,13.370355754825,5.6150423422917,2921.1888548272,-0.0076730214059353,0.038870017975569,-1.7711923122406,80.747899261794,5.6150423422917,17.3032546798,0.63000984188854,0,0.16910362019728,5.4310435530919,5.3083862579009,13.366983179581,0,0.63000984188854,
1.6920001069084,1296.1562704386,842.31943648425,13.371215071798,5.6493617356371,2921.2399583826,-0.0076929992064834,0.038927488029003,-1.770870923996,80.752184282656,5.6493617356371,17.204272803078,0.63802376138462,0,0.1718019705647,5.4747071645561,5.3533019476049,13.36781921731,0,0.63802376138462,
1.7010001074523,1296.103380535,842.32976859558,13.372135491423,5.6988155021762,2924.2004838312,-0.0076519506983459,0.039006110280752,-1.7704690694809,80.75668395312,5.6988155021762,17.097323768172,0.64562032693224,0,0.1721492175736,5.5195288007977,5.3981073898405,13.36867306031,0,0.64562032693224,
1.7105001080781,1296.0528146687,842.33954023611,13.373023119988,5.7462136247827,2927.3895200625,-0.0076748891733587,0.039023116230965,-1.7701638936996,80.760874094418,5.7462136247827,17.015456806546,0.65363993595597,0,0.17246747817756,5.5648657278635,5.4428141436839,13.369533327399,0,0.65363993595597,
1.720000108704,1295.999055041,842.34998612123,13.373977643318,5.78778815162,2930.6378142517,-0.0076277372427285,0.039110347628593,-1.7697725296021,80.765341646432,5.78778815162,16.892395053536,0.66166473756991,0,0.17274253480715,5.6094502605134,5.4876786487789,13.370412466667,0,0.66166473756991,
1.7290001092479,1295.9448984254,842.36045653763,13.374949888508,5.828056736111,2936.4549495017,-0.0076136062853038,0.039135549217463,-1.769423365593,80.769738427518,5.828056736111,16.813001721066,0.66926860281675,0,0.17092595441253,5.653171570868,5.5324368490768,13.371309755438,0,0.66926860281675,
1.7380001097918,1295.8932229902,842.37047119305,13.375875013149,5.8714181409115,2943.4996061676,-0.0075660939328372,0.039203844964504,-1.7690652608871,80.773898519815,5.8714181409115,16.700437188579,0.67687632171667,0,0.1681759994161,5.6968209519154,5.576605797926,13.372212599273,0,0.67687632171667,
1.7470001103356,1295.8411879872,842.3805011973,13.376817492466,5.9057601517791,2952.6713001366,-0.0075468369759619,0.039179787039757,-1.7687350511551,80.778109290945,5.9057601517791,16.598930438982,0.68448268295803,0,0.16380093974513,5.73860881918,5.6201675423936,13.373122175976,0,0.68448268295803,
1.7560001108795,1295.7888419591,842.39059854316,13.377771890937,5.943379439013,2962.7273665118,-0.0075414371676743,0.039185497909784,-1.7683308124542,80.782314638633,5.943379439013,16.493865427434,0.69208936646391,0,0.15873869378254,5.7795629357761,5.6628516585792,13.374040572201,0,0.69208936646391,
1.7655001115054,1295.736165389,842.40074296895,13.378752276647,5.9791319527103,2975.5620955891,-0.0074800704605877,0.039187721908092,-1.7680160999298,80.78651789478,5.9791319527103,16.397256420365,0.70011877601707,0,0.15167561185295,5.81947678371,5.7047891355486,13.374971173887,0,0.70011877601707,
1.7745001120493,1295.6802164656,842.41149492469,13.379762246292,6.0157802566654,2989.2145386044,-0.0074695469811559,0.039121851325035,-1.7676236629486,80.79095637695,6.0157802566654,16.267544336409,0.70772186852348,0,0.14380472131138,5.8587375167507,5.7462553768898,13.37591783419,0,0.70772186852348,
1.7840001126751,1295.6269083545,842.42174385372,13.380745276823,6.0491114428152,3004.4865815193,-0.0074439458549023,0.039086520671844,-1.7672857046127,80.795112234922,6.0491114428152,16.17639624401,0.715745251549,0,0.13478902785304,5.896812286655,5.7867311310407,13.376871810077,0,0.715745251549,
1.793000113219,1295.5702943562,842.43258841184,13.381723295737,6.0860715827101,3020.2166852219,-0.0074007366783917,0.038942664861679,-1.7668942213058,80.799573017858,6.0860715827101,16.106487027354,0.72333824101698,0,0.12521821489666,5.9346642229397,5.8266504344651,13.377831066225,0,0.72333824101698,
1.8025001138449,1295.516371452,842.44292801968,13.382725839598,6.1167996254348,3036.6696679862,-0.0073598613962531,0.038879062980413,-1.7665784358978,80.803757121089,6.1167996254348,16.0430964019,0.73134928055501,0,0.11517562428903,5.9710913446298,5.8656269500501,13.378798170546,0,0.73134928055501,
1.8120001144707,1295.4591125052,842.45384862536,13.383710203263,6.1551251723666,3053.2252823215,-0.0073588164523244,0.038651138544083,-1.7661608457565,80.808256640754,6.1551251723666,15.964874318137,0.73934677528353,0,0.10499000183359,6.0078981039326,5.9040117414671,13.379770027526,0,0.73934677528353,
1.8210001150146,1295.4015287405,842.46485686093,13.384763542173,6.1889303101674,3071.6519753224,-0.0073165721260011,0.038560196757317,-1.7658454179764,80.812719070765,6.1889303101674,15.908089892397,0.74691823380536,0,0.093109814292391,6.0441044900736,5.9420507551732,13.380757321459,0,0.74691823380536,
1.8300001155585,1295.3466708208,842.47529998596,13.385678556959,6.2209386949455,3087.2008594991,-0.007256121840328,0.038317408412695,-1.7654637098312,80.816977909679,6.2209386949455,15.810864143775,0.75447604839876,0,0.083443769938294,6.0794713285701,5.9791392804386,13.381731025014,0,0.75447604839876,
1.8390001161024,1295.2915326832,842.48579847498,13.386701749972,6.2561594671502,3105.3322062869,-0.0072845285758376,0.038199853152037,-1.7651493549347,80.82132591367,6.2561594671502,15.757603948772,0.76202726339226,0,0.071651741570905,6.1148089239706,6.0155226326944,13.382714074162,0,0.76202726339226,
1.8485001167282,1295.2360636718,842.49630993872,13.387598026195,6.2898274489054,3121.1872970198,-0.0072184889577329,0.03793241456151,-1.7647582292557,80.825703027405,6.2898274489054,15.659988170129,0.76998215914169,0,0.061769382645039,6.1498126085368,6.0513695984651,13.383680757925,0,0.76998215914169,
1.8575001172721,1295.1772271802,842.50747321552,13.388691380322,6.3220287358747,3140.1969094007,-0.0072287363000214,0.037820264697075,-1.7644363641739,80.830356485427,6.3220287358747,15.596232247925,0.77751209339337,0,0.049117852871442,6.1842558142159,6.0870875763551,13.384671351946,0,0.77751209339337,
1.867000117898,1295.1211600883,842.51806310151,13.389585481975,6.3552159312734,3155.9318254968,-0.0072029056027532,0.037546262145042,-1.7640361785889,80.83474276512,6.3552159312734,15.487308305026,0.78544417217846,0,0.039206368794536,6.218447856634,6.1222821750367,13.385643690138,0,0.78544417217846,
1.8760001184419,1295.061671772,842.52931165695,13.390661703812,6.3912663640879,3175.3875164258,-0.0072020967490971,0.037415128201246,-1.7637174129486,80.83947912968,6.3912663640879,15.423260303893,0.79295144305314,0,0.026028910547048,6.2530115545027,6.1575076324244,13.386636328148,0,0.79295144305314,
1.8855001190677,1295.0049805397,842.53998866049,13.391531435507,6.4257885673078,3190.6417856066,-0.0071946736425161,0.037170946598053,-1.7633174657822,80.84394664014,6.4257885673078,15.338044287714,0.80086139227435,0,0.016387176765191,6.2875670194811,6.1924021516243,13.387604960956,0,0.80086139227435,
1.8950001196936,1294.9448507691,842.55130083195,13.392611660889,6.4631996905388,3209.9416514456,-0.0071820435114205,0.037033930420876,-1.7629932165146,80.848773110989,6.4631996905388,15.210305700614,0.80876327422076,0,0.0033320713192817,6.3226935386806,6.2272955158551,13.388595588333,0,0.80876327422076,
1.9040001202375,1294.8843451529,842.56266864936,13.393538212884,6.4943159592854,3226.9359316449,-0.0072114495560527,0.036801319569349,-1.7625758647919,80.853580806242,6.4943159592854,15.01836879925,0.81623630609587,0,0,6.3570180511593,6.2623857481638,13.389572912317,0,0.81623630609587,
1.9130001207814,1294.8267390337,842.57346081559,13.394541739053,6.5338406771015,3244.5171085497,-0.0071504367515445,0.036680813878775,-1.762277007103,80.858185551883,6.5338406771015,14.897490475267,0.8237026297932,0,0,6.3923825721835,6.2971698938497,13.390556378254,0,0.8237026297932,
1.9225001214072,1294.7688262837,842.58432032133,13.395418133478,6.5593784739854,3260.9158720864,-0.0072145015001297,0.036482058465481,-1.7618885040283,80.862899377678,6.5593784739854,14.70329815881,0.83157208094203,0,0,6.4257816871719,6.3316826580912,13.391517673404,0,0.83157208094203,
1.9315001219511,1294.7073502783,842.59578066744,13.396444824597,6.6032900064414,3279.0867205635,-0.0071581918746233,0.036342963576317,-1.7615392208099,80.867919905167,6.6032900064414,14.571797136298,0.83901962164049,0,0,6.4612833659423,6.3665241049886,13.392493656851,0,0.83901962164049,
1.940500122495,1294.6488184789,842.60674660385,13.397339362808,6.6311924412941,3296.1819060376,-0.0071926238015294,0.036191705614328,-1.7611970901489,80.872659683381,6.6311924412941,14.403889288996,0.8464587645528,0,0,6.4952652295886,6.4011260070133,13.393451636296,0,0.8464587645528,
1.9495001230389,1294.5899499706,842.61765797192,13.398294181163,6.6697706501295,3312.7064372059,-0.0071661579422653,0.036063227802515,-1.7608259916306,80.877512109082,6.6697706501295,14.259686691648,0.85389078000432,0,0,6.530166327195,6.4356823760452,13.394411234269,0,0.85389078000432,
1.9585001235828,1294.530811544,842.62871556362,13.399214739111,6.7006206260152,3330.4398644614,-0.0071648149751127,0.035949811339378,-1.7605093717575,80.88240833812,6.7006206260152,14.106195268222,0.86131650779875,0,0,6.5642571920051,6.4700791993286,13.395360682972,0,0.86131650779875,
